[
  {
    "id": "equinix-at1",
    "provider": "Equinix",
    "name": "AT1 - Atlanta",
    "city": "Atlanta",
    "country": "United States",
    "region": "North America",
    "address": "56 Marietta Street NW, Atlanta, GA 30303",
    "latitude": 33.7490,
    "longitude": -84.3880,
    "features": ["24/7 Support", "Redundant Power", "High Security", "Carrier Neutral"],
    "connectivity": "Multiple carriers available"
  },
  {
    "id": "equinix-bo1",
    "provider": "Equinix",
    "name": "BO1 - Boston",
    "city": "Boston",
    "country": "United States",
    "region": "North America",
    "address": "200 Paul Avenue, Boston, MA 02128",
    "latitude": 42.3601,
    "longitude": -71.0589,
    "features": ["24/7 Support", "Redundant Power", "High Security", "Carrier Neutral"],
    "connectivity": "Multiple carriers available"
  },
  {
    "id": "equinix-ch1",
    "provider": "Equinix",
    "name": "CH1 - Chicago",
    "city": "Chicago",
    "country": "United States",
    "region": "North America",
    "address": "350 East Cermak Road, Chicago, IL 60616",
    "latitude": 41.8781,
    "longitude": -87.6298,
    "features": ["24/7 Support", "Redundant Power", "High Security", "Carrier Neutral"],
    "connectivity": "Multiple carriers available"
  },
  {
    "id": "equinix-ch2",
    "provider": "Equinix",
    "name": "CH2 - Chicago",
    "city": "Chicago",
    "country": "United States",
    "region": "North America",
    "address": "350 East Cermak Road, Chicago, IL 60616",
    "latitude": 41.8781,
    "longitude": -87.6298,
    "features": ["24/7 Support", "Redundant Power", "High Security", "Carrier Neutral"],
    "connectivity": "Multiple carriers available"
  },
  {
    "id": "equinix-ch4",
    "provider": "Equinix",
    "name": "CH4 - Chicago",
    "city": "Chicago",
    "country": "United States",
    "region": "North America",
    "address": "350 East Cermak Road, Chicago, IL 60616",
    "latitude": 41.8781,
    "longitude": -87.6298,
    "features": ["24/7 Support", "Redundant Power", "High Security", "Carrier Neutral"],
    "connectivity": "Multiple carriers available"
  },
  {
    "id": "equinix-da1",
    "provider": "Equinix",
    "name": "DA1 - Dallas",
    "city": "Dallas",
    "country": "United States",
    "region": "North America",
    "address": "1950 North Stemmons Freeway, Dallas, TX 75207",
    "latitude": 32.7767,
    "longitude": -96.7970,
    "features": ["24/7 Support", "Redundant Power", "High Security", "Carrier Neutral"],
    "connectivity": "Multiple carriers available"
  },
  {
    "id": "equinix-da2",
    "provider": "Equinix",
    "name": "DA2 - Dallas",
    "city": "Dallas",
    "country": "United States",
    "region": "North America",
    "address": "1950 North Stemmons Freeway, Dallas, TX 75207",
    "latitude": 32.7767,
    "longitude": -96.7970,
    "features": ["24/7 Support", "Redundant Power", "High Security", "Carrier Neutral"],
    "connectivity": "Multiple carriers available"
  },
  {
    "id": "equinix-da3",
    "provider": "Equinix",
    "name": "DA3 - Dallas",
    "city": "Dallas",
    "country": "United States",
    "region": "North America",
    "address": "1950 North Stemmons Freeway, Dallas, TX 75207",
    "latitude": 32.7767,
    "longitude": -96.7970,
    "features": ["24/7 Support", "Redundant Power", "High Security", "Carrier Neutral"],
    "connectivity": "Multiple carriers available"
  },
  {
    "id": "equinix-dc1",
    "provider": "Equinix",
    "name": "DC1 - Ashburn",
    "city": "Ashburn",
    "country": "United States",
    "region": "North America",
    "address": "21715 Filigree Court, Ashburn, VA 20147",
    "latitude": 39.0458,
    "longitude": -77.4874,
    "features": ["24/7 Support", "Redundant Power", "High Security", "Carrier Neutral"],
    "connectivity": "Multiple carriers available"
  },
  {
    "id": "equinix-dc2",
    "provider": "Equinix",
    "name": "DC2 - Ashburn",
    "city": "Ashburn",
    "country": "United States",
    "region": "North America",
    "address": "21715 Filigree Court, Ashburn, VA 20147",
    "latitude": 39.0458,
    "longitude": -77.4874,
    "features": ["24/7 Support", "Redundant Power", "High Security", "Carrier Neutral"],
    "connectivity": "Multiple carriers available"
  },
  {
    "id": "equinix-de2",
    "provider": "Equinix",
    "name": "DE2 - Denver",
    "city": "Denver",
    "country": "United States",
    "region": "North America",
    "address": "1275 South Colorado Boulevard, Denver, CO 80246",
    "latitude": 39.7392,
    "longitude": -104.9903,
    "features": ["24/7 Support", "Redundant Power", "High Security", "Carrier Neutral"],
    "connectivity": "Multiple carriers available"
  },
  {
    "id": "equinix-la1",
    "provider": "Equinix",
    "name": "LA1 - Los Angeles",
    "city": "Los Angeles",
    "country": "United States",
    "region": "North America",
    "address": "624 South Grand Avenue, Los Angeles, CA 90017",
    "latitude": 34.0522,
    "longitude": -118.2437,
    "features": ["24/7 Support", "Redundant Power", "High Security", "Carrier Neutral"],
    "connectivity": "Multiple carriers available"
  },
  {
    "id": "equinix-la3",
    "provider": "Equinix",
    "name": "LA3 - El Segundo",
    "city": "Los Angeles",
    "country": "United States",
    "region": "North America",
    "address": "2050 East Mariposa Avenue, El Segundo, CA 90245",
    "latitude": 33.9425,
    "longitude": -118.4081,
    "features": ["24/7 Support", "Redundant Power", "High Security", "Carrier Neutral"],
    "connectivity": "Multiple carriers available"
  },
  {
    "id": "equinix-mi1",
    "provider": "Equinix",
    "name": "MI1 - Miami",
    "city": "Miami",
    "country": "United States",
    "region": "North America",
    "address": "50 Northeast 9th Street, Miami, FL 33132",
    "latitude": 25.7617,
    "longitude": -80.1918,
    "features": ["24/7 Support", "Redundant Power", "High Security", "Carrier Neutral"],
    "connectivity": "Multiple carriers available"
  },
  {
    "id": "equinix-ny2",
    "provider": "Equinix",
    "name": "NY2 - Secaucus",
    "city": "New York",
    "country": "United States",
    "region": "North America",
    "address": "755 Secaucus Road, Secaucus, NJ 07094",
    "latitude": 40.7589,
    "longitude": -74.0658,
    "features": ["24/7 Support", "Redundant Power", "High Security", "Carrier Neutral"],
    "connectivity": "Multiple carriers available"
  },
  {
    "id": "equinix-ny4",
    "provider": "Equinix",
    "name": "NY4 - Secaucus",
    "city": "New York",
    "country": "United States",
    "region": "North America",
    "address": "755 Secaucus Road, Secaucus, NJ 07094",
    "latitude": 40.7589,
    "longitude": -74.0658,
    "features": ["24/7 Support", "Redundant Power", "High Security", "Carrier Neutral"],
    "connectivity": "Multiple carriers available"
  },
  {
    "id": "equinix-ny5",
    "provider": "Equinix",
    "name": "NY5 - Secaucus",
    "city": "New York",
    "country": "United States",
    "region": "North America",
    "address": "755 Secaucus Road, Secaucus, NJ 07094",
    "latitude": 40.7589,
    "longitude": -74.0658,
    "features": ["24/7 Support", "Redundant Power", "High Security", "Carrier Neutral"],
    "connectivity": "Multiple carriers available"
  },
  {
    "id": "equinix-se2",
    "provider": "Equinix",
    "name": "SE2 - Seattle",
    "city": "Seattle",
    "country": "United States",
    "region": "North America",
    "address": "2001 Sixth Avenue, Seattle, WA 98121",
    "latitude": 47.6062,
    "longitude": -122.3321,
    "features": ["24/7 Support", "Redundant Power", "High Security", "Carrier Neutral"],
    "connectivity": "Multiple carriers available"
  },
  {
    "id": "equinix-sv1",
    "provider": "Equinix",
    "name": "SV1 - San Jose",
    "city": "San Jose",
    "country": "United States",
    "region": "North America",
    "address": "11 Great Oaks Boulevard, San Jose, CA 95119",
    "latitude": 37.3382,
    "longitude": -121.8863,
    "features": ["24/7 Support", "Redundant Power", "High Security", "Carrier Neutral"],
    "connectivity": "Multiple carriers available"
  },
  {
    "id": "equinix-sv2",
    "provider": "Equinix",
    "name": "SV2 - Santa Clara",
    "city": "San Jose",
    "country": "United States",
    "region": "North America",
    "address": "2901 Tasman Drive, Santa Clara, CA 95054",
    "latitude": 37.3382,
    "longitude": -121.8863,
    "features": ["24/7 Support", "Redundant Power", "High Security", "Carrier Neutral"],
    "connectivity": "Multiple carriers available"
  },
  {
    "id": "equinix-tr1",
    "provider": "Equinix",
    "name": "TR1 - Toronto",
    "city": "Toronto",
    "country": "Canada",
    "region": "North America",
    "address": "151 Front Street West, Toronto, ON M5J 2N1",
    "latitude": 43.6532,
    "longitude": -79.3832,
    "features": ["24/7 Support", "Redundant Power", "High Security", "Carrier Neutral"],
    "connectivity": "Multiple carriers available"
  },
  {
    "id": "equinix-ld4",
    "provider": "Equinix",
    "name": "LD4 - London",
    "city": "London",
    "country": "United Kingdom",
    "region": "Europe",
    "address": "Harbour Exchange Square, London E14 9GE",
    "latitude": 51.5074,
    "longitude": -0.1278,
    "features": ["24/7 Support", "Redundant Power", "High Security", "Carrier Neutral"],
    "connectivity": "Multiple carriers available"
  },
  {
    "id": "equinix-ld5",
    "provider": "Equinix",
    "name": "LD5 - London",
    "city": "London",
    "country": "United Kingdom",
    "region": "Europe",
    "address": "8 Buckingham Avenue, Slough SL1 4PF",
    "latitude": 51.5074,
    "longitude": -0.1278,
    "features": ["24/7 Support", "Redundant Power", "High Security", "Carrier Neutral"],
    "connectivity": "Multiple carriers available"
  },
  {
    "id": "equinix-ld6",
    "provider": "Equinix",
    "name": "LD6 - London",
    "city": "London",
    "country": "United Kingdom",
    "region": "Europe",
    "address": "Harbour Exchange Square, London E14 9GE",
    "latitude": 51.5074,
    "longitude": -0.1278,
    "features": ["24/7 Support", "Redundant Power", "High Security", "Carrier Neutral"],
    "connectivity": "Multiple carriers available"
  },
  {
    "id": "equinix-fr2",
    "provider": "Equinix",
    "name": "FR2 - Frankfurt",
    "city": "Frankfurt",
    "country": "Germany",
    "region": "Europe",
    "address": "Kleyerstraße 90, 60326 Frankfurt am Main",
    "latitude": 50.1109,
    "longitude": 8.6821,
    "features": ["24/7 Support", "Redundant Power", "High Security", "Carrier Neutral"],
    "connectivity": "Multiple carriers available"
  },
  {
    "id": "equinix-fr4",
    "provider": "Equinix",
    "name": "FR4 - Frankfurt",
    "city": "Frankfurt",
    "country": "Germany",
    "region": "Europe",
    "address": "Kleyerstraße 90, 60326 Frankfurt am Main",
    "latitude": 50.1109,
    "longitude": 8.6821,
    "features": ["24/7 Support", "Redundant Power", "High Security", "Carrier Neutral"],
    "connectivity": "Multiple carriers available"
  },
  {
    "id": "equinix-am1",
    "provider": "Equinix",
    "name": "AM1 - Amsterdam",
    "city": "Amsterdam",
    "country": "Netherlands",
    "region": "Europe",
    "address": "Kuiperbergweg 13, 1101 AG Amsterdam",
    "latitude": 52.3676,
    "longitude": 4.9041,
    "features": ["24/7 Support", "Redundant Power", "High Security", "Carrier Neutral"],
    "connectivity": "Multiple carriers available"
  },
  {
    "id": "equinix-am2",
    "provider": "Equinix",
    "name": "AM2 - Amsterdam",
    "city": "Amsterdam",
    "country": "Netherlands",
    "region": "Europe",
    "address": "Kuiperbergweg 13, 1101 AG Amsterdam",
    "latitude": 52.3676,
    "longitude": 4.9041,
    "features": ["24/7 Support", "Redundant Power", "High Security", "Carrier Neutral"],
    "connectivity": "Multiple carriers available"
  },
  {
    "id": "equinix-pa2",
    "provider": "Equinix",
    "name": "PA2 - Paris",
    "city": "Paris",
    "country": "France",
    "region": "Europe",
    "address": "114 Rue Ambroise Croizat, 93200 Saint-Denis",
    "latitude": 48.8566,
    "longitude": 2.3522,
    "features": ["24/7 Support", "Redundant Power", "High Security", "Carrier Neutral"],
    "connectivity": "Multiple carriers available"
  },
  {
    "id": "equinix-pa3",
    "provider": "Equinix",
    "name": "PA3 - Paris",
    "city": "Paris",
    "country": "France",
    "region": "Europe",
    "address": "114 Rue Ambroise Croizat, 93200 Saint-Denis",
    "latitude": 48.8566,
    "longitude": 2.3522,
    "features": ["24/7 Support", "Redundant Power", "High Security", "Carrier Neutral"],
    "connectivity": "Multiple carriers available"
  },
  {
    "id": "equinix-sy1",
    "provider": "Equinix",
    "name": "SY1 - Sydney",
    "city": "Sydney",
    "country": "Australia",
    "region": "Asia Pacific",
    "address": "47 Bourke Road, Alexandria NSW 2015",
    "latitude": -33.8688,
    "longitude": 151.2093,
    "features": ["24/7 Support", "Redundant Power", "High Security", "Carrier Neutral"],
    "connectivity": "Multiple carriers available"
  },
  {
    "id": "equinix-sy3",
    "provider": "Equinix",
    "name": "SY3 - Sydney",
    "city": "Sydney",
    "country": "Australia",
    "region": "Asia Pacific",
    "address": "47 Bourke Road, Alexandria NSW 2015",
    "latitude": -33.8688,
    "longitude": 151.2093,
    "features": ["24/7 Support", "Redundant Power", "High Security", "Carrier Neutral"],
    "connectivity": "Multiple carriers available"
  },
  {
    "id": "equinix-me1",
    "provider": "Equinix",
    "name": "ME1 - Melbourne",
    "city": "Melbourne",
    "country": "Australia",
    "region": "Asia Pacific",
    "address": "820 Lorimer Street, Port Melbourne VIC 3207",
    "latitude": -37.8136,
    "longitude": 144.9631,
    "features": ["24/7 Support", "Redundant Power", "High Security", "Carrier Neutral"],
    "connectivity": "Multiple carriers available"
  },
  {
    "id": "equinix-sg1",
    "provider": "Equinix",
    "name": "SG1 - Singapore",
    "city": "Singapore",
    "country": "Singapore",
    "region": "Asia Pacific",
    "address": "20 Ayer Rajah Crescent, Singapore 139964",
    "latitude": 1.3521,
    "longitude": 103.8198,
    "features": ["24/7 Support", "Redundant Power", "High Security", "Carrier Neutral"],
    "connectivity": "Multiple carriers available"
  },
  {
    "id": "equinix-sg2",
    "provider": "Equinix",
    "name": "SG2 - Singapore",
    "city": "Singapore",
    "country": "Singapore",
    "region": "Asia Pacific",
    "address": "20 Ayer Rajah Crescent, Singapore 139964",
    "latitude": 1.3521,
    "longitude": 103.8198,
    "features": ["24/7 Support", "Redundant Power", "High Security", "Carrier Neutral"],
    "connectivity": "Multiple carriers available"
  },
  {
    "id": "equinix-ty2",
    "provider": "Equinix",
    "name": "TY2 - Tokyo",
    "city": "Tokyo",
    "country": "Japan",
    "region": "Asia Pacific",
    "address": "Otemachi Financial City Grand Cube, Tokyo 100-0004",
    "latitude": 35.6762,
    "longitude": 139.6503,
    "features": ["24/7 Support", "Redundant Power", "High Security", "Carrier Neutral"],
    "connectivity": "Multiple carriers available"
  },
  {
    "id": "equinix-ty3",
    "provider": "Equinix",
    "name": "TY3 - Tokyo",
    "city": "Tokyo",
    "country": "Japan",
    "region": "Asia Pacific",
    "address": "Otemachi Financial City Grand Cube, Tokyo 100-0004",
    "latitude": 35.6762,
    "longitude": 139.6503,
    "features": ["24/7 Support", "Redundant Power", "High Security", "Carrier Neutral"],
    "connectivity": "Multiple carriers available"
  },
  {
    "id": "equinix-hk1",
    "provider": "Equinix",
    "name": "HK1 - Hong Kong",
    "city": "Hong Kong",
    "country": "Hong Kong",
    "region": "Asia Pacific",
    "address": "Units 2001-2005, 20/F, MEGA-i, 398 Kwun Tong Road",
    "latitude": 22.3193,
    "longitude": 114.1694,
    "features": ["24/7 Support", "Redundant Power", "High Security", "Carrier Neutral"],
    "connectivity": "Multiple carriers available"
  },
  {
    "id": "megaport-ash1",
    "provider": "Megaport",
    "name": "Ashburn",
    "city": "Ashburn",
    "country": "United States",
    "region": "North America",
    "address": "21715 Filigree Court, Ashburn, VA 20147",
    "latitude": 39.0458,
    "longitude": -77.4874,
    "features": ["Software Defined Network", "Cloud Connectivity", "Global Reach", "On-Demand Provisioning"],
    "connectivity": "Direct cloud connections to AWS, Azure, Google Cloud"
  },
  {
    "id": "megaport-atl1",
    "provider": "Megaport",
    "name": "Atlanta",
    "city": "Atlanta",
    "country": "United States",
    "region": "North America",
    "address": "56 Marietta Street NW, Atlanta, GA 30303",
    "latitude": 33.7490,
    "longitude": -84.3880,
    "features": ["Software Defined Network", "Cloud Connectivity", "Global Reach", "On-Demand Provisioning"],
    "connectivity": "Direct cloud connections to AWS, Azure, Google Cloud"
  },
  {
    "id": "megaport-bos1",
    "provider": "Megaport",
    "name": "Boston",
    "city": "Boston",
    "country": "United States",
    "region": "North America",
    "address": "200 Paul Avenue, Boston, MA 02128",
    "latitude": 42.3601,
    "longitude": -71.0589,
    "features": ["Software Defined Network", "Cloud Connectivity", "Global Reach", "On-Demand Provisioning"],
    "connectivity": "Direct cloud connections to AWS, Azure, Google Cloud"
  },
  {
    "id": "megaport-chi1",
    "provider": "Megaport",
    "name": "Chicago",
    "city": "Chicago",
    "country": "United States",
    "region": "North America",
    "address": "350 E Cermak Rd, Chicago, IL 60616",
    "latitude": 41.8781,
    "longitude": -87.6298,
    "features": ["Software Defined Network", "Cloud Connectivity", "Global Reach", "On-Demand Provisioning"],
    "connectivity": "Direct cloud connections to AWS, Azure, Google Cloud"
  },
  {
    "id": "megaport-dal1",
    "provider": "Megaport",
    "name": "Dallas",
    "city": "Dallas",
    "country": "United States",
    "region": "North America",
    "address": "1950 North Stemmons Freeway, Dallas, TX 75207",
    "latitude": 32.7767,
    "longitude": -96.7970,
    "features": ["Software Defined Network", "Cloud Connectivity", "Global Reach", "On-Demand Provisioning"],
    "connectivity": "Direct cloud connections to AWS, Azure, Google Cloud"
  },
  {
    "id": "megaport-den1",
    "provider": "Megaport",
    "name": "Denver",
    "city": "Denver",
    "country": "United States",
    "region": "North America",
    "address": "1275 South Colorado Boulevard, Denver, CO 80246",
    "latitude": 39.7392,
    "longitude": -104.9903,
    "features": ["Software Defined Network", "Cloud Connectivity", "Global Reach", "On-Demand Provisioning"],
    "connectivity": "Direct cloud connections to AWS, Azure, Google Cloud"
  },
  {
    "id": "megaport-lax1",
    "provider": "Megaport",
    "name": "Los Angeles",
    "city": "Los Angeles",
    "country": "United States",
    "region": "North America",
    "address": "One Wilshire, 624 S Grand Ave, Los Angeles, CA 90017",
    "latitude": 34.0522,
    "longitude": -118.2437,
    "features": ["Software Defined Network", "Cloud Connectivity", "Global Reach", "On-Demand Provisioning"],
    "connectivity": "Direct cloud connections to AWS, Azure, Google Cloud"
  },
  {
    "id": "megaport-mia1",
    "provider": "Megaport",
    "name": "Miami",
    "city": "Miami",
    "country": "United States",
    "region": "North America",
    "address": "50 Northeast 9th Street, Miami, FL 33132",
    "latitude": 25.7617,
    "longitude": -80.1918,
    "features": ["Software Defined Network", "Cloud Connectivity", "Global Reach", "On-Demand Provisioning"],
    "connectivity": "Direct cloud connections to AWS, Azure, Google Cloud"
  },
  {
    "id": "megaport-ny1",
    "provider": "Megaport",
    "name": "New York",
    "city": "New York",
    "country": "United States",
    "region": "North America",
    "address": "32 Avenue of the Americas, New York, NY 10013",
    "latitude": 40.7128,
    "longitude": -74.0060,
    "features": ["Software Defined Network", "Cloud Connectivity", "Global Reach", "On-Demand Provisioning"],
    "connectivity": "Direct cloud connections to AWS, Azure, Google Cloud"
  },
  {
    "id": "megaport-phx1",
    "provider": "Megaport",
    "name": "Phoenix",
    "city": "Phoenix",
    "country": "United States",
    "region": "North America",
    "address": "2323 W Dunlap Ave, Phoenix, AZ 85021",
    "latitude": 33.4484,
    "longitude": -112.0740,
    "features": ["Software Defined Network", "Cloud Connectivity", "Global Reach", "On-Demand Provisioning"],
    "connectivity": "Direct cloud connections to AWS, Azure, Google Cloud"
  },
  {
    "id": "megaport-sea1",
    "provider": "Megaport",
    "name": "Seattle",
    "city": "Seattle",
    "country": "United States",
    "region": "North America",
    "address": "2001 Sixth Avenue, Seattle, WA 98121",
    "latitude": 47.6062,
    "longitude": -122.3321,
    "features": ["Software Defined Network", "Cloud Connectivity", "Global Reach", "On-Demand Provisioning"],
    "connectivity": "Direct cloud connections to AWS, Azure, Google Cloud"
  },
  {
    "id": "megaport-sjc1",
    "provider": "Megaport",
    "name": "San Jose",
    "city": "San Jose",
    "country": "United States",
    "region": "North America",
    "address": "11 Great Oaks Boulevard, San Jose, CA 95119",
    "latitude": 37.3382,
    "longitude": -121.8863,
    "features": ["Software Defined Network", "Cloud Connectivity", "Global Reach", "On-Demand Provisioning"],
    "connectivity": "Direct cloud connections to AWS, Azure, Google Cloud"
  },
  {
    "id": "megaport-tor1",
    "provider": "Megaport",
    "name": "Toronto",
    "city": "Toronto",
    "country": "Canada",
    "region": "North America",
    "address": "151 Front St W, Toronto, ON M5J 2N1",
    "latitude": 43.6532,
    "longitude": -79.3832,
    "features": ["Software Defined Network", "Cloud Connectivity", "Global Reach", "On-Demand Provisioning"],
    "connectivity": "Direct cloud connections to AWS, Azure, Google Cloud"
  },
  {
    "id": "megaport-van1",
    "provider": "Megaport",
    "name": "Vancouver",
    "city": "Vancouver",
    "country": "Canada",
    "region": "North America",
    "address": "555 West Hastings Street, Vancouver, BC V6B 4N6",
    "latitude": 49.2827,
    "longitude": -123.1207,
    "features": ["Software Defined Network", "Cloud Connectivity", "Global Reach", "On-Demand Provisioning"],
    "connectivity": "Direct cloud connections to AWS, Azure, Google Cloud"
  },
  {
    "id": "megaport-lon1",
    "provider": "Megaport",
    "name": "London",
    "city": "London",
    "country": "United Kingdom",
    "region": "Europe",
    "address": "Telehouse North, Coriander Avenue, London E14 2AA",
    "latitude": 51.5074,
    "longitude": -0.1278,
    "features": ["Software Defined Network", "Cloud Connectivity", "Global Reach", "On-Demand Provisioning"],
    "connectivity": "Direct cloud connections to AWS, Azure, Google Cloud"
  },
  {
    "id": "megaport-fra1",
    "provider": "Megaport",
    "name": "Frankfurt",
    "city": "Frankfurt",
    "country": "Germany",
    "region": "Europe",
    "address": "Hanauer Landstraße 302, 60314 Frankfurt am Main",
    "latitude": 50.1109,
    "longitude": 8.6821,
    "features": ["Software Defined Network", "Cloud Connectivity", "Global Reach", "On-Demand Provisioning"],
    "connectivity": "Direct cloud connections to AWS, Azure, Google Cloud"
  },
  {
    "id": "megaport-ams1",
    "provider": "Megaport",
    "name": "Amsterdam",
    "city": "Amsterdam",
    "country": "Netherlands",
    "region": "Europe",
    "address": "Science Park 610, 1098 XH Amsterdam",
    "latitude": 52.3676,
    "longitude": 4.9041,
    "features": ["Software Defined Network", "Cloud Connectivity", "Global Reach", "On-Demand Provisioning"],
    "connectivity": "Direct cloud connections to AWS, Azure, Google Cloud"
  },
  {
    "id": "megaport-par1",
    "provider": "Megaport",
    "name": "Paris",
    "city": "Paris",
    "country": "France",
    "region": "Europe",
    "address": "114 Rue Ambroise Croizat, 93200 Saint-Denis",
    "latitude": 48.8566,
    "longitude": 2.3522,
    "features": ["Software Defined Network", "Cloud Connectivity", "Global Reach", "On-Demand Provisioning"],
    "connectivity": "Direct cloud connections to AWS, Azure, Google Cloud"
  },
  {
    "id": "megaport-mad1",
    "provider": "Megaport",
    "name": "Madrid",
    "city": "Madrid",
    "country": "Spain",
    "region": "Europe",
    "address": "Calle de Alcalá, 61, 28014 Madrid",
    "latitude": 40.4168,
    "longitude": -3.7038,
    "features": ["Software Defined Network", "Cloud Connectivity", "Global Reach", "On-Demand Provisioning"],
    "connectivity": "Direct cloud connections to AWS, Azure, Google Cloud"
  },
  {
    "id": "megaport-mil1",
    "provider": "Megaport",
    "name": "Milan",
    "city": "Milan",
    "country": "Italy",
    "region": "Europe",
    "address": "Via Caldera, 21, 20153 Milano MI",
    "latitude": 45.4642,
    "longitude": 9.1900,
    "features": ["Software Defined Network", "Cloud Connectivity", "Global Reach", "On-Demand Provisioning"],
    "connectivity": "Direct cloud connections to AWS, Azure, Google Cloud"
  },
  {
    "id": "megaport-sto1",
    "provider": "Megaport",
    "name": "Stockholm",
    "city": "Stockholm",
    "country": "Sweden",
    "region": "Europe",
    "address": "Isafjordsgatan 32C, 164 40 Kista",
    "latitude": 59.3293,
    "longitude": 18.0686,
    "features": ["Software Defined Network", "Cloud Connectivity", "Global Reach", "On-Demand Provisioning"],
    "connectivity": "Direct cloud connections to AWS, Azure, Google Cloud"
  },
  {
    "id": "megaport-zur1",
    "provider": "Megaport",
    "name": "Zurich",
    "city": "Zurich",
    "country": "Switzerland",
    "region": "Europe",
    "address": "Hertistrasse 25, 8304 Wallisellen",
    "latitude": 47.3769,
    "longitude": 8.5417,
    "features": ["Software Defined Network", "Cloud Connectivity", "Global Reach", "On-Demand Provisioning"],
    "connectivity": "Direct cloud connections to AWS, Azure, Google Cloud"
  },
  {
    "id": "megaport-sin1",
    "provider": "Megaport",
    "name": "Singapore",
    "city": "Singapore",
    "country": "Singapore",
    "region": "Asia Pacific",
    "address": "20 Ayer Rajah Crescent, Singapore 139964",
    "latitude": 1.3521,
    "longitude": 103.8198,
    "features": ["Software Defined Network", "Cloud Connectivity", "Global Reach", "On-Demand Provisioning"],
    "connectivity": "Direct cloud connections to AWS, Azure, Google Cloud"
  },
  {
    "id": "megaport-syd1",
    "provider": "Megaport",
    "name": "Sydney",
    "city": "Sydney",
    "country": "Australia",
    "region": "Asia Pacific",
    "address": "4 Eden Park Dr, Macquarie Park NSW 2113",
    "latitude": -33.8688,
    "longitude": 151.2093,
    "features": ["Software Defined Network", "Cloud Connectivity", "Global Reach", "On-Demand Provisioning"],
    "connectivity": "Direct cloud connections to AWS, Azure, Google Cloud"
  },
  {
    "id": "megaport-mel1",
    "provider": "Megaport",
    "name": "Melbourne",
    "city": "Melbourne",
    "country": "Australia",
    "region": "Asia Pacific",
    "address": "820 Lorimer Street, Port Melbourne VIC 3207",
    "latitude": -37.8136,
    "longitude": 144.9631,
    "features": ["Software Defined Network", "Cloud Connectivity", "Global Reach", "On-Demand Provisioning"],
    "connectivity": "Direct cloud connections to AWS, Azure, Google Cloud"
  },
  {
    "id": "megaport-per1",
    "provider": "Megaport",
    "name": "Perth",
    "city": "Perth",
    "country": "Australia",
    "region": "Asia Pacific",
    "address": "239 Adelaide Terrace, Perth WA 6000",
    "latitude": -31.9505,
    "longitude": 115.8605,
    "features": ["Software Defined Network", "Cloud Connectivity", "Global Reach", "On-Demand Provisioning"],
    "connectivity": "Direct cloud connections to AWS, Azure, Google Cloud"
  },
  {
    "id": "megaport-tok1",
    "provider": "Megaport",
    "name": "Tokyo",
    "city": "Tokyo",
    "country": "Japan",
    "region": "Asia Pacific",
    "address": "Otemachi Financial City Grand Cube, Tokyo 100-0004",
    "latitude": 35.6762,
    "longitude": 139.6503,
    "features": ["Software Defined Network", "Cloud Connectivity", "Global Reach", "On-Demand Provisioning"],
    "connectivity": "Direct cloud connections to AWS, Azure, Google Cloud"
  },
  {
    "id": "megaport-osa1",
    "provider": "Megaport",
    "name": "Osaka",
    "city": "Osaka",
    "country": "Japan",
    "region": "Asia Pacific",
    "address": "1-8-16 Kyutaro-machi, Chuo-ku, Osaka 541-0056",
    "latitude": 34.6937,
    "longitude": 135.5023,
    "features": ["Software Defined Network", "Cloud Connectivity", "Global Reach", "On-Demand Provisioning"],
    "connectivity": "Direct cloud connections to AWS, Azure, Google Cloud"
  },
  {
    "id": "megaport-hkg1",
    "provider": "Megaport",
    "name": "Hong Kong",
    "city": "Hong Kong",
    "country": "Hong Kong",
    "region": "Asia Pacific",
    "address": "MEGA-i, 398 Kwun Tong Road, Kwun Tong, Kowloon",
    "latitude": 22.3193,
    "longitude": 114.1694,
    "features": ["Software Defined Network", "Cloud Connectivity", "Global Reach", "On-Demand Provisioning"],
    "connectivity": "Direct cloud connections to AWS, Azure, Google Cloud"
  },
  {
    "id": "megaport-seo1",
    "provider": "Megaport",
    "name": "Seoul",
    "city": "Seoul",
    "country": "South Korea",
    "region": "Asia Pacific",
    "address": "Digital Media City, 396 World Cup buk-ro, Mapo-gu",
    "latitude": 37.5665,
    "longitude": 126.9780,
    "features": ["Software Defined Network", "Cloud Connectivity", "Global Reach", "On-Demand Provisioning"],
    "connectivity": "Direct cloud connections to AWS, Azure, Google Cloud"
  },
  {
    "id": "megaport-mum1",
    "provider": "Megaport",
    "name": "Mumbai",
    "city": "Mumbai",
    "country": "India",
    "region": "Asia Pacific",
    "address": "Hiranandani Business Park, Powai, Mumbai 400076",
    "latitude": 19.0760,
    "longitude": 72.8777,
    "features": ["Software Defined Network", "Cloud Connectivity", "Global Reach", "On-Demand Provisioning"],
    "connectivity": "Direct cloud connections to AWS, Azure, Google Cloud"
  },
  {
    "id": "1111systems-nyc1",
    "provider": "11:11 Systems",
    "name": "New York City",
    "city": "New York",
    "country": "United States",
    "region": "North America",
    "address": "32 Avenue of the Americas, New York, NY 10013",
    "latitude": 40.7128,
    "longitude": -74.0060,
    "features": ["Disaster Recovery", "Private Cloud", "Managed Services", "24/7 NOC", "SSAE 18 SOC 2 Type II"],
    "connectivity": "Carrier neutral with multi-cloud connectivity"
  },
  {
    "id": "1111systems-chi1",
    "provider": "11:11 Systems",
    "name": "Chicago",
    "city": "Chicago",
    "country": "United States",
    "region": "North America",
    "address": "350 E Cermak Rd, Chicago, IL 60616",
    "latitude": 41.8781,
    "longitude": -87.6298,
    "features": ["Disaster Recovery", "Private Cloud", "Managed Services", "24/7 NOC", "SSAE 18 SOC 2 Type II"],
    "connectivity": "Carrier neutral with multi-cloud connectivity"
  },
  {
    "id": "1111systems-dal1",
    "provider": "11:11 Systems",
    "name": "Dallas",
    "city": "Dallas",
    "country": "United States",
    "region": "North America",
    "address": "2323 Bryan St, Dallas, TX 75201",
    "latitude": 32.7767,
    "longitude": -96.7970,
    "features": ["Disaster Recovery", "Private Cloud", "Managed Services", "24/7 NOC", "SSAE 18 SOC 2 Type II"],
    "connectivity": "Carrier neutral with multi-cloud connectivity"
  },
  {
    "id": "1111systems-lax1",
    "provider": "11:11 Systems",
    "name": "Los Angeles",
    "city": "Los Angeles",
    "country": "United States",
    "region": "North America",
    "address": "One Wilshire, 624 S Grand Ave, Los Angeles, CA 90017",
    "latitude": 34.0522,
    "longitude": -118.2437,
    "features": ["Disaster Recovery", "Private Cloud", "Managed Services", "24/7 NOC", "SSAE 18 SOC 2 Type II"],
    "connectivity": "Carrier neutral with multi-cloud connectivity"
  },
  {
    "id": "1111systems-atl1",
    "provider": "11:11 Systems",
    "name": "Atlanta",
    "city": "Atlanta",
    "country": "United States",
    "region": "North America",
    "address": "56 Marietta St NW, Atlanta, GA 30303",
    "latitude": 33.7490,
    "longitude": -84.3880,
    "features": ["Disaster Recovery", "Private Cloud", "Managed Services", "24/7 NOC", "SSAE 18 SOC 2 Type II"],
    "connectivity": "Carrier neutral with multi-cloud connectivity"
  },
  {
    "id": "1111systems-sj1",
    "provider": "11:11 Systems",
    "name": "San Jose",
    "city": "San Jose",
    "country": "United States",
    "region": "North America",
    "address": "2901 Tasman Dr, Santa Clara, CA 95054",
    "latitude": 37.3382,
    "longitude": -121.8863,
    "features": ["Disaster Recovery", "Private Cloud", "Managed Services", "24/7 NOC", "SSAE 18 SOC 2 Type II"],
    "connectivity": "Carrier neutral with multi-cloud connectivity"
  },
  {
    "id": "1111systems-phx1",
    "provider": "11:11 Systems",
    "name": "Scottsdale",
    "city": "Phoenix",
    "country": "United States",
    "region": "North America",
    "address": "15169 N Scottsdale Rd, Scottsdale, AZ 85254",
    "latitude": 33.4484,
    "longitude": -112.0740,
    "features": ["Disaster Recovery", "Private Cloud", "Managed Services", "24/7 NOC", "SSAE 18 SOC 2 Type II"],
    "connectivity": "Carrier neutral with multi-cloud connectivity"
  },
  {
    "id": "1111systems-tor1",
    "provider": "11:11 Systems",
    "name": "Toronto",
    "city": "Toronto",
    "country": "Canada",
    "region": "North America",
    "address": "151 Front St W, Toronto, ON M5J 2N1",
    "latitude": 43.6532,
    "longitude": -79.3832,
    "features": ["Disaster Recovery", "Private Cloud", "Managed Services", "24/7 NOC", "SSAE 18 SOC 2 Type II"],
    "connectivity": "Carrier neutral with multi-cloud connectivity"
  },
  {
    "id": "1111systems-res1",
    "provider": "11:11 Systems",
    "name": "Reston",
    "city": "Reston",
    "country": "United States",
    "region": "North America",
    "address": "12100 Sunrise Valley Drive, Reston, VA 20191",
    "latitude": 38.9586,
    "longitude": -77.3570,
    "features": ["Disaster Recovery", "Private Cloud", "Managed Services", "24/7 NOC", "SSAE 18 SOC 2 Type II"],
    "connectivity": "Carrier neutral with multi-cloud connectivity"
  },
  {
    "id": "1111systems-ash1",
    "provider": "11:11 Systems",
    "name": "Ashburn",
    "city": "Ashburn",
    "country": "United States",
    "region": "North America",
    "address": "21715 Filigree Court, Ashburn, VA 20147",
    "latitude": 39.0458,
    "longitude": -77.4874,
    "features": ["Disaster Recovery", "Private Cloud", "Managed Services", "24/7 NOC", "SSAE 18 SOC 2 Type II"],
    "connectivity": "Carrier neutral with multi-cloud connectivity"
  },
  {
    "id": "1111systems-nj1",
    "provider": "11:11 Systems",
    "name": "Newark",
    "city": "Newark",
    "country": "United States",
    "region": "North America",
    "address": "755 Secaucus Road, Secaucus, NJ 07094",
    "latitude": 40.7589,
    "longitude": -74.0658,
    "features": ["Disaster Recovery", "Private Cloud", "Managed Services", "24/7 NOC", "SSAE 18 SOC 2 Type II"],
    "connectivity": "Carrier neutral with multi-cloud connectivity"
  },
  {
    "id": "1111systems-nj2",
    "provider": "11:11 Systems",
    "name": "Carteret",
    "city": "Newark",
    "country": "United States",
    "region": "North America",
    "address": "100 Delawanna Avenue, Carteret, NJ 07008",
    "latitude": 40.5776,
    "longitude": -74.2265,
    "features": ["Disaster Recovery", "Private Cloud", "Managed Services", "24/7 NOC", "SSAE 18 SOC 2 Type II"],
    "connectivity": "Carrier neutral with multi-cloud connectivity"
  },
  {
    "id": "1111systems-ams1",
    "provider": "11:11 Systems",
    "name": "Amsterdam",
    "city": "Amsterdam",
    "country": "Netherlands",
    "region": "Europe",
    "address": "Cessnalaan 50, 1119 NL Schiphol-Rijk",
    "latitude": 52.3676,
    "longitude": 4.9041,
    "features": ["Disaster Recovery", "Private Cloud", "Managed Services", "24/7 NOC", "ISO 27001"],
    "connectivity": "Carrier neutral with multi-cloud connectivity"
  },
  {
    "id": "1111systems-lon1",
    "provider": "11:11 Systems",
    "name": "London",
    "city": "London",
    "country": "United Kingdom",
    "region": "Europe",
    "address": "Telehouse North, Coriander Avenue, London E14 2AA",
    "latitude": 51.5074,
    "longitude": -0.1278,
    "features": ["Disaster Recovery", "Private Cloud", "Managed Services", "24/7 NOC", "ISO 27001"],
    "connectivity": "Carrier neutral with multi-cloud connectivity"
  },
  {
    "id": "1111systems-fra1",
    "provider": "11:11 Systems",
    "name": "Frankfurt",
    "city": "Frankfurt",
    "country": "Germany",
    "region": "Europe",
    "address": "Kleyerstraße 90, 60326 Frankfurt am Main",
    "latitude": 50.1109,
    "longitude": 8.6821,
    "features": ["Disaster Recovery", "Private Cloud", "Managed Services", "24/7 NOC", "ISO 27001"],
    "connectivity": "Carrier neutral with multi-cloud connectivity"
  },
  {
    "id": "1111systems-syd1",
    "provider": "11:11 Systems",
    "name": "Sydney",
    "city": "Sydney",
    "country": "Australia",
    "region": "Asia Pacific",
    "address": "47 Bourke Road, Alexandria NSW 2015",
    "latitude": -33.8688,
    "longitude": 151.2093,
    "features": ["Disaster Recovery", "Private Cloud", "Managed Services", "24/7 NOC", "ISO 27001"],
    "connectivity": "Carrier neutral with multi-cloud connectivity"
  },
  {
    "id": "1111systems-mel1",
    "provider": "11:11 Systems",
    "name": "Melbourne",
    "city": "Melbourne",
    "country": "Australia",
    "region": "Asia Pacific",
    "address": "820 Lorimer Street, Port Melbourne VIC 3207",
    "latitude": -37.8136,
    "longitude": 144.9631,
    "features": ["Disaster Recovery", "Private Cloud", "Managed Services", "24/7 NOC", "ISO 27001"],
    "connectivity": "Carrier neutral with multi-cloud connectivity"
  },
  {
    "id": "1111systems-sin1",
    "provider": "11:11 Systems",
    "name": "Singapore",
    "city": "Singapore",
    "country": "Singapore",
    "region": "Asia Pacific",
    "address": "20 Ayer Rajah Crescent, Singapore 139964",
    "latitude": 1.3521,
    "longitude": 103.8198,
    "features": ["Disaster Recovery", "Private Cloud", "Managed Services", "24/7 NOC", "ISO 27001"],
    "connectivity": "Carrier neutral with multi-cloud connectivity"
  },
  {
    "id": "1111systems-hkg1",
    "provider": "11:11 Systems",
    "name": "Hong Kong",
    "city": "Hong Kong",
    "country": "Hong Kong",
    "region": "Asia Pacific",
    "address": "MEGA-i, 398 Kwun Tong Road, Kwun Tong, Kowloon",
    "latitude": 22.3193,
    "longitude": 114.1694,
    "features": ["Disaster Recovery", "Private Cloud", "Managed Services", "24/7 NOC", "ISO 27001"],
    "connectivity": "Carrier neutral with multi-cloud connectivity"
  }
]