[
  {
    "id": "equinix-at1",
    "provider": "Equinix",
    "name": "AT1 - Atlanta",
    "city": "Atlanta",
    "country": "United States",
    "region": "North America",
    "address": "56 Marietta Street NW, Atlanta, GA 30303",
    "latitude": 33.7490,
    "longitude": -84.3880,
    "features": ["24/7 Support", "Redundant Power", "High Security", "Carrier Neutral"],
    "connectivity": "Multiple carriers available"
  },
  {
    "id": "equinix-at4",
    "provider": "Equinix",
    "name": "AT4 - Atlanta",
    "city": "Atlanta",
    "country": "United States",
    "region": "North America",
    "address": "56 Marietta Street NW, Atlanta, GA 30303",
    "latitude": 33.7490,
    "longitude": -84.3880,
    "features": ["24/7 Support", "Redundant Power", "High Security", "Carrier Neutral"],
    "connectivity": "Multiple carriers available"
  },
  {
    "id": "equinix-bo1",
    "provider": "Equinix",
    "name": "BO1 - Boston",
    "city": "Boston",
    "country": "United States",
    "region": "North America",
    "address": "200 Paul Avenue, Boston, MA 02128",
    "latitude": 42.3601,
    "longitude": -71.0589,
    "features": ["24/7 Support", "Redundant Power", "High Security", "Carrier Neutral"],
    "connectivity": "Multiple carriers available"
  },
  {
    "id": "equinix-bo2",
    "provider": "Equinix",
    "name": "BO2 - Billerica",
    "city": "Boston",
    "country": "United States",
    "region": "North America",
    "address": "9 Townsend West, Nashua, NH 03063",
    "latitude": 42.3601,
    "longitude": -71.0589,
    "features": ["24/7 Support", "Redundant Power", "High Security", "Carrier Neutral"],
    "connectivity": "Multiple carriers available"
  },
  {
    "id": "equinix-ch1",
    "provider": "Equinix",
    "name": "CH1 - Chicago",
    "city": "Chicago",
    "country": "United States",
    "region": "North America",
    "address": "350 East Cermak Road, Chicago, IL 60616",
    "latitude": 41.8781,
    "longitude": -87.6298,
    "features": ["24/7 Support", "Redundant Power", "High Security", "Carrier Neutral"],
    "connectivity": "Multiple carriers available"
  },
  {
    "id": "equinix-ch2",
    "provider": "Equinix",
    "name": "CH2 - Chicago",
    "city": "Chicago",
    "country": "United States",
    "region": "North America",
    "address": "350 East Cermak Road, Chicago, IL 60616",
    "latitude": 41.8781,
    "longitude": -87.6298,
    "features": ["24/7 Support", "Redundant Power", "High Security", "Carrier Neutral"],
    "connectivity": "Multiple carriers available"
  },
  {
    "id": "equinix-ch3",
    "provider": "Equinix",
    "name": "CH3 - Elk Grove Village",
    "city": "Chicago",
    "country": "United States",
    "region": "North America",
    "address": "2200 Busse Road, Elk Grove Village, IL 60007",
    "latitude": 41.8781,
    "longitude": -87.6298,
    "features": ["24/7 Support", "Redundant Power", "High Security", "Carrier Neutral"],
    "connectivity": "Multiple carriers available"
  },
  {
    "id": "equinix-ch4",
    "provider": "Equinix",
    "name": "CH4 - Chicago",
    "city": "Chicago",
    "country": "United States",
    "region": "North America",
    "address": "350 East Cermak Road, Chicago, IL 60616",
    "latitude": 41.8781,
    "longitude": -87.6298,
    "features": ["24/7 Support", "Redundant Power", "High Security", "Carrier Neutral"],
    "connectivity": "Multiple carriers available"
  }
]
  ,{
    "id": "equinix-ch7",
    "provider": "Equinix",
    "name": "CH7 - Westmont",
    "city": "Chicago",
    "country": "United States",
    "region": "North America",
    "address": "427 W 35th Street, Chicago, IL 60616",
    "latitude": 41.8781,
    "longitude": -87.6298,
    "features": ["24/7 Support", "Redundant Power", "High Security", "Carrier Neutral"],
    "connectivity": "Multiple carriers available"
  },
  {
    "id": "equinix-cu1",
    "provider": "Equinix",
    "name": "CU1 - Culpeper",
    "city": "Culpeper",
    "country": "United States",
    "region": "North America",
    "address": "14340 Culpeper Industrial Drive, Culpeper, VA 22701",
    "latitude": 38.4732,
    "longitude": -78.0053,
    "features": ["24/7 Support", "Redundant Power", "High Security", "Carrier Neutral"],
    "connectivity": "Multiple carriers available"
  },
  {
    "id": "equinix-cu2",
    "provider": "Equinix",
    "name": "CU2 - Culpeper",
    "city": "Culpeper",
    "country": "United States",
    "region": "North America",
    "address": "14340 Culpeper Industrial Drive, Culpeper, VA 22701",
    "latitude": 38.4732,
    "longitude": -78.0053,
    "features": ["24/7 Support", "Redundant Power", "High Security", "Carrier Neutral"],
    "connectivity": "Multiple carriers available"
  },
  {
    "id": "equinix-cu3",
    "provider": "Equinix",
    "name": "CU3 - Culpeper",
    "city": "Culpeper",
    "country": "United States",
    "region": "North America",
    "address": "14340 Culpeper Industrial Drive, Culpeper, VA 22701",
    "latitude": 38.4732,
    "longitude": -78.0053,
    "features": ["24/7 Support", "Redundant Power", "High Security", "Carrier Neutral"],
    "connectivity": "Multiple carriers available"
  },
  {
    "id": "equinix-cu4",
    "provider": "Equinix",
    "name": "CU4 - Culpeper",
    "city": "Culpeper",
    "country": "United States",
    "region": "North America",
    "address": "14340 Culpeper Industrial Drive, Culpeper, VA 22701",
    "latitude": 38.4732,
    "longitude": -78.0053,
    "features": ["24/7 Support", "Redundant Power", "High Security", "Carrier Neutral"],
    "connectivity": "Multiple carriers available"
  },
  {
    "id": "equinix-cu6",
    "provider": "Equinix",
    "name": "CU6 - Culpeper",
    "city": "Culpeper",
    "country": "United States",
    "region": "North America",
    "address": "14340 Culpeper Industrial Drive, Culpeper, VA 22701",
    "latitude": 38.4732,
    "longitude": -78.0053,
    "features": ["24/7 Support", "Redundant Power", "High Security", "Carrier Neutral"],
    "connectivity": "Multiple carriers available"
  },
  {
    "id": "equinix-da1",
    "provider": "Equinix",
    "name": "DA1 - Dallas",
    "city": "Dallas",
    "country": "United States",
    "region": "North America",
    "address": "1950 North Stemmons Freeway, Dallas, TX 75207",
    "latitude": 32.7767,
    "longitude": -96.7970,
    "features": ["24/7 Support", "Redundant Power", "High Security", "Carrier Neutral"],
    "connectivity": "Multiple carriers available"
  },
  {
    "id": "equinix-da2",
    "provider": "Equinix",
    "name": "DA2 - Dallas",
    "city": "Dallas",
    "country": "United States",
    "region": "North America",
    "address": "1950 North Stemmons Freeway, Dallas, TX 75207",
    "latitude": 32.7767,
    "longitude": -96.7970,
    "features": ["24/7 Support", "Redundant Power", "High Security", "Carrier Neutral"],
    "connectivity": "Multiple carriers available"
  },
  {
    "id": "equinix-da3",
    "provider": "Equinix",
    "name": "DA3 - Dallas",
    "city": "Dallas",
    "country": "United States",
    "region": "North America",
    "address": "1950 North Stemmons Freeway, Dallas, TX 75207",
    "latitude": 32.7767,
    "longitude": -96.7970,
    "features": ["24/7 Support", "Redundant Power", "High Security", "Carrier Neutral"],
    "connectivity": "Multiple carriers available"
  },
  {
    "id": "equinix-da6",
    "provider": "Equinix",
    "name": "DA6 - Dallas",
    "city": "Dallas",
    "country": "United States",
    "region": "North America",
    "address": "1950 North Stemmons Freeway, Dallas, TX 75207",
    "latitude": 32.7767,
    "longitude": -96.7970,
    "features": ["24/7 Support", "Redundant Power", "High Security", "Carrier Neutral"],
    "connectivity": "Multiple carriers available"
  },
  {
    "id": "equinix-da7",
    "provider": "Equinix",
    "name": "DA7 - Plano",
    "city": "Dallas",
    "country": "United States",
    "region": "North America",
    "address": "2323 Bryan Street, Dallas, TX 75201",
    "latitude": 32.7767,
    "longitude": -96.7970,
    "features": ["24/7 Support", "Redundant Power", "High Security", "Carrier Neutral"],
    "connectivity": "Multiple carriers available"
  },
  {
    "id": "equinix-da11",
    "provider": "Equinix",
    "name": "DA11 - Dallas",
    "city": "Dallas",
    "country": "United States",
    "region": "North America",
    "address": "1950 North Stemmons Freeway, Dallas, TX 75207",
    "latitude": 32.7767,
    "longitude": -96.7970,
    "features": ["24/7 Support", "Redundant Power", "High Security", "Carrier Neutral"],
    "connectivity": "Multiple carriers available"
  }
]
  ,{
    "id": "equinix-dc1",
    "provider": "Equinix",
    "name": "DC1 - Ashburn",
    "city": "Ashburn",
    "country": "United States",
    "region": "North America",
    "address": "21715 Filigree Court, Ashburn, VA 20147",
    "latitude": 39.0458,
    "longitude": -77.4874,
    "features": ["24/7 Support", "Redundant Power", "High Security", "Carrier Neutral"],
    "connectivity": "Multiple carriers available"
  },
  {
    "id": "equinix-dc2",
    "provider": "Equinix",
    "name": "DC2 - Ashburn",
    "city": "Ashburn",
    "country": "United States",
    "region": "North America",
    "address": "21715 Filigree Court, Ashburn, VA 20147",
    "latitude": 39.0458,
    "longitude": -77.4874,
    "features": ["24/7 Support", "Redundant Power", "High Security", "Carrier Neutral"],
    "connectivity": "Multiple carriers available"
  },
  {
    "id": "equinix-dc3",
    "provider": "Equinix",
    "name": "DC3 - Ashburn",
    "city": "Ashburn",
    "country": "United States",
    "region": "North America",
    "address": "21715 Filigree Court, Ashburn, VA 20147",
    "latitude": 39.0458,
    "longitude": -77.4874,
    "features": ["24/7 Support", "Redundant Power", "High Security", "Carrier Neutral"],
    "connectivity": "Multiple carriers available"
  },
  {
    "id": "equinix-dc4",
    "provider": "Equinix",
    "name": "DC4 - Ashburn",
    "city": "Ashburn",
    "country": "United States",
    "region": "North America",
    "address": "21715 Filigree Court, Ashburn, VA 20147",
    "latitude": 39.0458,
    "longitude": -77.4874,
    "features": ["24/7 Support", "Redundant Power", "High Security", "Carrier Neutral"],
    "connectivity": "Multiple carriers available"
  },
  {
    "id": "equinix-dc5",
    "provider": "Equinix",
    "name": "DC5 - Ashburn",
    "city": "Ashburn",
    "country": "United States",
    "region": "North America",
    "address": "21715 Filigree Court, Ashburn, VA 20147",
    "latitude": 39.0458,
    "longitude": -77.4874,
    "features": ["24/7 Support", "Redundant Power", "High Security", "Carrier Neutral"],
    "connectivity": "Multiple carriers available"
  },
  {
    "id": "equinix-dc6",
    "provider": "Equinix",
    "name": "DC6 - Ashburn",
    "city": "Ashburn",
    "country": "United States",
    "region": "North America",
    "address": "21715 Filigree Court, Ashburn, VA 20147",
    "latitude": 39.0458,
    "longitude": -77.4874,
    "features": ["24/7 Support", "Redundant Power", "High Security", "Carrier Neutral"],
    "connectivity": "Multiple carriers available"
  },
  {
    "id": "equinix-dc7",
    "provider": "Equinix",
    "name": "DC7 - Vienna",
    "city": "Washington DC",
    "country": "United States",
    "region": "North America",
    "address": "8502 Tyco Road, Vienna, VA 22182",
    "latitude": 38.9072,
    "longitude": -77.0369,
    "features": ["24/7 Support", "Redundant Power", "High Security", "Carrier Neutral"],
    "connectivity": "Multiple carriers available"
  },
  {
    "id": "equinix-dc10",
    "provider": "Equinix",
    "name": "DC10 - Ashburn",
    "city": "Ashburn",
    "country": "United States",
    "region": "North America",
    "address": "21715 Filigree Court, Ashburn, VA 20147",
    "latitude": 39.0458,
    "longitude": -77.4874,
    "features": ["24/7 Support", "Redundant Power", "High Security", "Carrier Neutral"],
    "connectivity": "Multiple carriers available"
  },
  {
    "id": "equinix-dc11",
    "provider": "Equinix",
    "name": "DC11 - Ashburn",
    "city": "Ashburn",
    "country": "United States",
    "region": "North America",
    "address": "21715 Filigree Court, Ashburn, VA 20147",
    "latitude": 39.0458,
    "longitude": -77.4874,
    "features": ["24/7 Support", "Redundant Power", "High Security", "Carrier Neutral"],
    "connectivity": "Multiple carriers available"
  },
  {
    "id": "equinix-dc12",
    "provider": "Equinix",
    "name": "DC12 - Ashburn",
    "city": "Ashburn",
    "country": "United States",
    "region": "North America",
    "address": "21715 Filigree Court, Ashburn, VA 20147",
    "latitude": 39.0458,
    "longitude": -77.4874,
    "features": ["24/7 Support", "Redundant Power", "High Security", "Carrier Neutral"],
    "connectivity": "Multiple carriers available"
  },
  {
    "id": "equinix-dc13",
    "provider": "Equinix",
    "name": "DC13 - Ashburn",
    "city": "Ashburn",
    "country": "United States",
    "region": "North America",
    "address": "21715 Filigree Court, Ashburn, VA 20147",
    "latitude": 39.0458,
    "longitude": -77.4874,
    "features": ["24/7 Support", "Redundant Power", "High Security", "Carrier Neutral"],
    "connectivity": "Multiple carriers available"
  },
  {
    "id": "equinix-dc15",
    "provider": "Equinix",
    "name": "DC15 - Washington DC",
    "city": "Washington DC",
    "country": "United States",
    "region": "North America",
    "address": "1275 K Street NW, Washington, DC 20005",
    "latitude": 38.9072,
    "longitude": -77.0369,
    "features": ["24/7 Support", "Redundant Power", "High Security", "Carrier Neutral"],
    "connectivity": "Multiple carriers available"
  },
  {
    "id": "equinix-dc21",
    "provider": "Equinix",
    "name": "DC21 - Ashburn",
    "city": "Ashburn",
    "country": "United States",
    "region": "North America",
    "address": "21715 Filigree Court, Ashburn, VA 20147",
    "latitude": 39.0458,
    "longitude": -77.4874,
    "features": ["24/7 Support", "Redundant Power", "High Security", "Carrier Neutral"],
    "connectivity": "Multiple carriers available"
  }
]
  ,{
    "id": "equinix-de1",
    "provider": "Equinix",
    "name": "DE1 - Centennial",
    "city": "Denver",
    "country": "United States",
    "region": "North America",
    "address": "1275 South Colorado Boulevard, Denver, CO 80246",
    "latitude": 39.7392,
    "longitude": -104.9903,
    "features": ["24/7 Support", "Redundant Power", "High Security", "Carrier Neutral"],
    "connectivity": "Multiple carriers available"
  },
  {
    "id": "equinix-de2",
    "provider": "Equinix",
    "name": "DE2 - Denver",
    "city": "Denver",
    "country": "United States",
    "region": "North America",
    "address": "1275 South Colorado Boulevard, Denver, CO 80246",
    "latitude": 39.7392,
    "longitude": -104.9903,
    "features": ["24/7 Support", "Redundant Power", "High Security", "Carrier Neutral"],
    "connectivity": "Multiple carriers available"
  },
  {
    "id": "equinix-ho1",
    "provider": "Equinix",
    "name": "HO1 - Houston",
    "city": "Houston",
    "country": "United States",
    "region": "North America",
    "address": "1301 Fannin Street, Houston, TX 77002",
    "latitude": 29.7604,
    "longitude": -95.3698,
    "features": ["24/7 Support", "Redundant Power", "High Security", "Carrier Neutral"],
    "connectivity": "Multiple carriers available"
  },
  {
    "id": "equinix-la1",
    "provider": "Equinix",
    "name": "LA1 - Los Angeles",
    "city": "Los Angeles",
    "country": "United States",
    "region": "North America",
    "address": "624 South Grand Avenue, Los Angeles, CA 90017",
    "latitude": 34.0522,
    "longitude": -118.2437,
    "features": ["24/7 Support", "Redundant Power", "High Security", "Carrier Neutral"],
    "connectivity": "Multiple carriers available"
  },
  {
    "id": "equinix-la3",
    "provider": "Equinix",
    "name": "LA3 - El Segundo",
    "city": "Los Angeles",
    "country": "United States",
    "region": "North America",
    "address": "2050 East Mariposa Avenue, El Segundo, CA 90245",
    "latitude": 33.9425,
    "longitude": -118.4081,
    "features": ["24/7 Support", "Redundant Power", "High Security", "Carrier Neutral"],
    "connectivity": "Multiple carriers available"
  },
  {
    "id": "equinix-la4",
    "provider": "Equinix",
    "name": "LA4 - El Segundo",
    "city": "Los Angeles",
    "country": "United States",
    "region": "North America",
    "address": "2050 East Mariposa Avenue, El Segundo, CA 90245",
    "latitude": 33.9425,
    "longitude": -118.4081,
    "features": ["24/7 Support", "Redundant Power", "High Security", "Carrier Neutral"],
    "connectivity": "Multiple carriers available"
  },
  {
    "id": "equinix-mi1",
    "provider": "Equinix",
    "name": "MI1 - Miami",
    "city": "Miami",
    "country": "United States",
    "region": "North America",
    "address": "50 Northeast 9th Street, Miami, FL 33132",
    "latitude": 25.7617,
    "longitude": -80.1918,
    "features": ["24/7 Support", "Redundant Power", "High Security", "Carrier Neutral"],
    "connectivity": "Multiple carriers available"
  },
  {
    "id": "equinix-ny1",
    "provider": "Equinix",
    "name": "NY1 - Newark",
    "city": "New York",
    "country": "United States",
    "region": "North America",
    "address": "165 Halsey Street, Newark, NJ 07102",
    "latitude": 40.7589,
    "longitude": -74.0658,
    "features": ["24/7 Support", "Redundant Power", "High Security", "Carrier Neutral"],
    "connectivity": "Multiple carriers available"
  },
  {
    "id": "equinix-ny2",
    "provider": "Equinix",
    "name": "NY2 - Secaucus",
    "city": "New York",
    "country": "United States",
    "region": "North America",
    "address": "755 Secaucus Road, Secaucus, NJ 07094",
    "latitude": 40.7589,
    "longitude": -74.0658,
    "features": ["24/7 Support", "Redundant Power", "High Security", "Carrier Neutral"],
    "connectivity": "Multiple carriers available"
  },
  {
    "id": "equinix-ny4",
    "provider": "Equinix",
    "name": "NY4 - Secaucus",
    "city": "New York",
    "country": "United States",
    "region": "North America",
    "address": "755 Secaucus Road, Secaucus, NJ 07094",
    "latitude": 40.7589,
    "longitude": -74.0658,
    "features": ["24/7 Support", "Redundant Power", "High Security", "Carrier Neutral"],
    "connectivity": "Multiple carriers available"
  },
  {
    "id": "equinix-ny5",
    "provider": "Equinix",
    "name": "NY5 - Secaucus",
    "city": "New York",
    "country": "United States",
    "region": "North America",
    "address": "755 Secaucus Road, Secaucus, NJ 07094",
    "latitude": 40.7589,
    "longitude": -74.0658,
    "features": ["24/7 Support", "Redundant Power", "High Security", "Carrier Neutral"],
    "connectivity": "Multiple carriers available"
  },
  {
    "id": "equinix-ny6",
    "provider": "Equinix",
    "name": "NY6 - Secaucus",
    "city": "New York",
    "country": "United States",
    "region": "North America",
    "address": "755 Secaucus Road, Secaucus, NJ 07094",
    "latitude": 40.7589,
    "longitude": -74.0658,
    "features": ["24/7 Support", "Redundant Power", "High Security", "Carrier Neutral"],
    "connectivity": "Multiple carriers available"
  },
  {
    "id": "equinix-ny7",
    "provider": "Equinix",
    "name": "NY7 - North Bergen",
    "city": "New York",
    "country": "United States",
    "region": "North America",
    "address": "7001 Boulevard East, North Bergen, NJ 07047",
    "latitude": 40.7589,
    "longitude": -74.0658,
    "features": ["24/7 Support", "Redundant Power", "High Security", "Carrier Neutral"],
    "connectivity": "Multiple carriers available"
  },
  {
    "id": "equinix-ny9",
    "provider": "Equinix",
    "name": "NY9 - New York",
    "city": "New York",
    "country": "United States",
    "region": "North America",
    "address": "111 8th Avenue, New York, NY 10011",
    "latitude": 40.7589,
    "longitude": -74.0658,
    "features": ["24/7 Support", "Redundant Power", "High Security", "Carrier Neutral"],
    "connectivity": "Multiple carriers available"
  },
  {
    "id": "equinix-ny11",
    "provider": "Equinix",
    "name": "NY11 - Carteret",
    "city": "New York",
    "country": "United States",
    "region": "North America",
    "address": "100 Delawanna Avenue, Carteret, NJ 07008",
    "latitude": 40.7589,
    "longitude": -74.0658,
    "features": ["24/7 Support", "Redundant Power", "High Security", "Carrier Neutral"],
    "connectivity": "Multiple carriers available"
  }
]
  ,{
    "id": "equinix-ph1",
    "provider": "Equinix",
    "name": "PH1 - Philadelphia",
    "city": "Philadelphia",
    "country": "United States",
    "region": "North America",
    "address": "401 North Broad Street, Philadelphia, PA 19108",
    "latitude": 39.9526,
    "longitude": -75.1652,
    "features": ["24/7 Support", "Redundant Power", "High Security", "Carrier Neutral"],
    "connectivity": "Multiple carriers available"
  },
  {
    "id": "equinix-se2",
    "provider": "Equinix",
    "name": "SE2 - Seattle",
    "city": "Seattle",
    "country": "United States",
    "region": "North America",
    "address": "2001 Sixth Avenue, Seattle, WA 98121",
    "latitude": 47.6062,
    "longitude": -122.3321,
    "features": ["24/7 Support", "Redundant Power", "High Security", "Carrier Neutral"],
    "connectivity": "Multiple carriers available"
  },
  {
    "id": "equinix-se3",
    "provider": "Equinix",
    "name": "SE3 - Seattle",
    "city": "Seattle",
    "country": "United States",
    "region": "North America",
    "address": "2001 Sixth Avenue, Seattle, WA 98121",
    "latitude": 47.6062,
    "longitude": -122.3321,
    "features": ["24/7 Support", "Redundant Power", "High Security", "Carrier Neutral"],
    "connectivity": "Multiple carriers available"
  },
  {
    "id": "equinix-se4",
    "provider": "Equinix",
    "name": "SE4 - Kent",
    "city": "Seattle",
    "country": "United States",
    "region": "North America",
    "address": "20815 25th Avenue South, Kent, WA 98032",
    "latitude": 47.6062,
    "longitude": -122.3321,
    "features": ["24/7 Support", "Redundant Power", "High Security", "Carrier Neutral"],
    "connectivity": "Multiple carriers available"
  },
  {
    "id": "equinix-sv1",
    "provider": "Equinix",
    "name": "SV1 - San Jose",
    "city": "San Jose",
    "country": "United States",
    "region": "North America",
    "address": "11 Great Oaks Boulevard, San Jose, CA 95119",
    "latitude": 37.3382,
    "longitude": -121.8863,
    "features": ["24/7 Support", "Redundant Power", "High Security", "Carrier Neutral"],
    "connectivity": "Multiple carriers available"
  },
  {
    "id": "equinix-sv2",
    "provider": "Equinix",
    "name": "SV2 - Santa Clara",
    "city": "San Jose",
    "country": "United States",
    "region": "North America",
    "address": "2901 Tasman Drive, Santa Clara, CA 95054",
    "latitude": 37.3382,
    "longitude": -121.8863,
    "features": ["24/7 Support", "Redundant Power", "High Security", "Carrier Neutral"],
    "connectivity": "Multiple carriers available"
  },
  {
    "id": "equinix-sv3",
    "provider": "Equinix",
    "name": "SV3 - San Jose",
    "city": "San Jose",
    "country": "United States",
    "region": "North America",
    "address": "11 Great Oaks Boulevard, San Jose, CA 95119",
    "latitude": 37.3382,
    "longitude": -121.8863,
    "features": ["24/7 Support", "Redundant Power", "High Security", "Carrier Neutral"],
    "connectivity": "Multiple carriers available"
  },
  {
    "id": "equinix-sv4",
    "provider": "Equinix",
    "name": "SV4 - Sunnyvale",
    "city": "San Jose",
    "country": "United States",
    "region": "North America",
    "address": "385 Moffett Park Drive, Sunnyvale, CA 94089",
    "latitude": 37.3382,
    "longitude": -121.8863,
    "features": ["24/7 Support", "Redundant Power", "High Security", "Carrier Neutral"],
    "connectivity": "Multiple carriers available"
  },
  {
    "id": "equinix-sv5",
    "provider": "Equinix",
    "name": "SV5 - San Jose",
    "city": "San Jose",
    "country": "United States",
    "region": "North America",
    "address": "11 Great Oaks Boulevard, San Jose, CA 95119",
    "latitude": 37.3382,
    "longitude": -121.8863,
    "features": ["24/7 Support", "Redundant Power", "High Security", "Carrier Neutral"],
    "connectivity": "Multiple carriers available"
  },
  {
    "id": "equinix-sv8",
    "provider": "Equinix",
    "name": "SV8 - Palo Alto",
    "city": "San Jose",
    "country": "United States",
    "region": "North America",
    "address": "200 Paul Avenue, San Francisco, CA 94124",
    "latitude": 37.3382,
    "longitude": -121.8863,
    "features": ["24/7 Support", "Redundant Power", "High Security", "Carrier Neutral"],
    "connectivity": "Multiple carriers available"
  },
  {
    "id": "equinix-sv9",
    "provider": "Equinix",
    "name": "SV9 - San Francisco",
    "city": "San Francisco",
    "country": "United States",
    "region": "North America",
    "address": "200 Paul Avenue, San Francisco, CA 94124",
    "latitude": 37.7749,
    "longitude": -122.4194,
    "features": ["24/7 Support", "Redundant Power", "High Security", "Carrier Neutral"],
    "connectivity": "Multiple carriers available"
  },
  {
    "id": "equinix-sv10",
    "provider": "Equinix",
    "name": "SV10 - San Jose",
    "city": "San Jose",
    "country": "United States",
    "region": "North America",
    "address": "11 Great Oaks Boulevard, San Jose, CA 95119",
    "latitude": 37.3382,
    "longitude": -121.8863,
    "features": ["24/7 Support", "Redundant Power", "High Security", "Carrier Neutral"],
    "connectivity": "Multiple carriers available"
  },
  {
    "id": "equinix-sv11",
    "provider": "Equinix",
    "name": "SV11 - San Jose",
    "city": "San Jose",
    "country": "United States",
    "region": "North America",
    "address": "11 Great Oaks Boulevard, San Jose, CA 95119",
    "latitude": 37.3382,
    "longitude": -121.8863,
    "features": ["24/7 Support", "Redundant Power", "High Security", "Carrier Neutral"],
    "connectivity": "Multiple carriers available"
  },
  {
    "id": "equinix-sv14",
    "provider": "Equinix",
    "name": "SV14 - Santa Clara",
    "city": "San Jose",
    "country": "United States",
    "region": "North America",
    "address": "2901 Tasman Drive, Santa Clara, CA 95054",
    "latitude": 37.3382,
    "longitude": -121.8863,
    "features": ["24/7 Support", "Redundant Power", "High Security", "Carrier Neutral"],
    "connectivity": "Multiple carriers available"
  },
  {
    "id": "equinix-sv15",
    "provider": "Equinix",
    "name": "SV15 - Santa Clara",
    "city": "San Jose",
    "country": "United States",
    "region": "North America",
    "address": "2901 Tasman Drive, Santa Clara, CA 95054",
    "latitude": 37.3382,
    "longitude": -121.8863,
    "features": ["24/7 Support", "Redundant Power", "High Security", "Carrier Neutral"],
    "connectivity": "Multiple carriers available"
  },
  {
    "id": "equinix-sv16",
    "provider": "Equinix",
    "name": "SV16 - Santa Clara",
    "city": "San Jose",
    "country": "United States",
    "region": "North America",
    "address": "2901 Tasman Drive, Santa Clara, CA 95054",
    "latitude": 37.3382,
    "longitude": -121.8863,
    "features": ["24/7 Support", "Redundant Power", "High Security", "Carrier Neutral"],
    "connectivity": "Multiple carriers available"
  }
]
  ,{
    "id": "equinix-cl1",
    "provider": "Equinix",
    "name": "CL1 - Calgary",
    "city": "Calgary",
    "country": "Canada",
    "region": "North America",
    "address": "1400 28 Street NE, Calgary, AB T2A 7W7",
    "latitude": 51.0447,
    "longitude": -114.0719,
    "features": ["24/7 Support", "Redundant Power", "High Security", "Carrier Neutral"],
    "connectivity": "Multiple carriers available"
  },
  {
    "id": "equinix-cl2",
    "provider": "Equinix",
    "name": "CL2 - Calgary",
    "city": "Calgary",
    "country": "Canada",
    "region": "North America",
    "address": "1400 28 Street NE, Calgary, AB T2A 7W7",
    "latitude": 51.0447,
    "longitude": -114.0719,
    "features": ["24/7 Support", "Redundant Power", "High Security", "Carrier Neutral"],
    "connectivity": "Multiple carriers available"
  },
  {
    "id": "equinix-cl3",
    "provider": "Equinix",
    "name": "CL3 - Calgary",
    "city": "Calgary",
    "country": "Canada",
    "region": "North America",
    "address": "1400 28 Street NE, Calgary, AB T2A 7W7",
    "latitude": 51.0447,
    "longitude": -114.0719,
    "features": ["24/7 Support", "Redundant Power", "High Security", "Carrier Neutral"],
    "connectivity": "Multiple carriers available"
  },
  {
    "id": "equinix-mt1",
    "provider": "Equinix",
    "name": "MT1 - Montreal",
    "city": "Montreal",
    "country": "Canada",
    "region": "North America",
    "address": "800 René-Lévesque Blvd West, Montreal, QC H3B 1X9",
    "latitude": 45.5017,
    "longitude": -73.5673,
    "features": ["24/7 Support", "Redundant Power", "High Security", "Carrier Neutral"],
    "connectivity": "Multiple carriers available"
  },
  {
    "id": "equinix-tr1",
    "provider": "Equinix",
    "name": "TR1 - Toronto",
    "city": "Toronto",
    "country": "Canada",
    "region": "North America",
    "address": "151 Front Street West, Toronto, ON M5J 2N1",
    "latitude": 43.6532,
    "longitude": -79.3832,
    "features": ["24/7 Support", "Redundant Power", "High Security", "Carrier Neutral"],
    "connectivity": "Multiple carriers available"
  },
  {
    "id": "equinix-tr2",
    "provider": "Equinix",
    "name": "TR2 - Markham",
    "city": "Toronto",
    "country": "Canada",
    "region": "North America",
    "address": "8 Tiverton Court, Markham, ON L3R 0G4",
    "latitude": 43.6532,
    "longitude": -79.3832,
    "features": ["24/7 Support", "Redundant Power", "High Security", "Carrier Neutral"],
    "connectivity": "Multiple carriers available"
  },
  {
    "id": "equinix-tr5",
    "provider": "Equinix",
    "name": "TR5 - Markham",
    "city": "Toronto",
    "country": "Canada",
    "region": "North America",
    "address": "8 Tiverton Court, Markham, ON L3R 0G4",
    "latitude": 43.6532,
    "longitude": -79.3832,
    "features": ["24/7 Support", "Redundant Power", "High Security", "Carrier Neutral"],
    "connectivity": "Multiple carriers available"
  },
  {
    "id": "equinix-tr6",
    "provider": "Equinix",
    "name": "TR6 - Brampton",
    "city": "Toronto",
    "country": "Canada",
    "region": "North America",
    "address": "8800 Keele Street, Concord, ON L4K 2N2",
    "latitude": 43.6532,
    "longitude": -79.3832,
    "features": ["24/7 Support", "Redundant Power", "High Security", "Carrier Neutral"],
    "connectivity": "Multiple carriers available"
  },
  {
    "id": "equinix-tr7",
    "provider": "Equinix",
    "name": "TR7 - Brampton",
    "city": "Toronto",
    "country": "Canada",
    "region": "North America",
    "address": "8800 Keele Street, Concord, ON L4K 2N2",
    "latitude": 43.6532,
    "longitude": -79.3832,
    "features": ["24/7 Support", "Redundant Power", "High Security", "Carrier Neutral"],
    "connectivity": "Multiple carriers available"
  },
  {
    "id": "equinix-va1",
    "provider": "Equinix",
    "name": "VA1 - Vancouver",
    "city": "Vancouver",
    "country": "Canada",
    "region": "North America",
    "address": "555 West Hastings Street, Vancouver, BC V6B 4N6",
    "latitude": 49.2827,
    "longitude": -123.1207,
    "features": ["24/7 Support", "Redundant Power", "High Security", "Carrier Neutral"],
    "connectivity": "Multiple carriers available"
  }
]
  ,{
    "id": "equinix-ld3",
    "provider": "Equinix",
    "name": "LD3 - London",
    "city": "London",
    "country": "United Kingdom",
    "region": "Europe",
    "address": "Harbour Exchange Square, London E14 9GE",
    "latitude": 51.5074,
    "longitude": -0.1278,
    "features": ["24/7 Support", "Redundant Power", "High Security", "Carrier Neutral"],
    "connectivity": "Multiple carriers available"
  },
  {
    "id": "equinix-ld4",
    "provider": "Equinix",
    "name": "LD4 - London",
    "city": "London",
    "country": "United Kingdom",
    "region": "Europe",
    "address": "Harbour Exchange Square, London E14 9GE",
    "latitude": 51.5074,
    "longitude": -0.1278,
    "features": ["24/7 Support", "Redundant Power", "High Security", "Carrier Neutral"],
    "connectivity": "Multiple carriers available"
  },
  {
    "id": "equinix-ld5",
    "provider": "Equinix",
    "name": "LD5 - London",
    "city": "London",
    "country": "United Kingdom",
    "region": "Europe",
    "address": "8 Buckingham Avenue, Slough SL1 4PF",
    "latitude": 51.5074,
    "longitude": -0.1278,
    "features": ["24/7 Support", "Redundant Power", "High Security", "Carrier Neutral"],
    "connectivity": "Multiple carriers available"
  },
  {
    "id": "equinix-ld6",
    "provider": "Equinix",
    "name": "LD6 - London",
    "city": "London",
    "country": "United Kingdom",
    "region": "Europe",
    "address": "Harbour Exchange Square, London E14 9GE",
    "latitude": 51.5074,
    "longitude": -0.1278,
    "features": ["24/7 Support", "Redundant Power", "High Security", "Carrier Neutral"],
    "connectivity": "Multiple carriers available"
  },
  {
    "id": "equinix-ld7",
    "provider": "Equinix",
    "name": "LD7 - London",
    "city": "London",
    "country": "United Kingdom",
    "region": "Europe",
    "address": "Harbour Exchange Square, London E14 9GE",
    "latitude": 51.5074,
    "longitude": -0.1278,
    "features": ["24/7 Support", "Redundant Power", "High Security", "Carrier Neutral"],
    "connectivity": "Multiple carriers available"
  },
  {
    "id": "equinix-ld8",
    "provider": "Equinix",
    "name": "LD8 - London",
    "city": "London",
    "country": "United Kingdom",
    "region": "Europe",
    "address": "Harbour Exchange Square, London E14 9GE",
    "latitude": 51.5074,
    "longitude": -0.1278,
    "features": ["24/7 Support", "Redundant Power", "High Security", "Carrier Neutral"],
    "connectivity": "Multiple carriers available"
  },
  {
    "id": "equinix-ld9",
    "provider": "Equinix",
    "name": "LD9 - London",
    "city": "London",
    "country": "United Kingdom",
    "region": "Europe",
    "address": "Harbour Exchange Square, London E14 9GE",
    "latitude": 51.5074,
    "longitude": -0.1278,
    "features": ["24/7 Support", "Redundant Power", "High Security", "Carrier Neutral"],
    "connectivity": "Multiple carriers available"
  },
  {
    "id": "equinix-ld10",
    "provider": "Equinix",
    "name": "LD10 - London",
    "city": "London",
    "country": "United Kingdom",
    "region": "Europe",
    "address": "Harbour Exchange Square, London E14 9GE",
    "latitude": 51.5074,
    "longitude": -0.1278,
    "features": ["24/7 Support", "Redundant Power", "High Security", "Carrier Neutral"],
    "connectivity": "Multiple carriers available"
  },
  {
    "id": "equinix-ma1",
    "provider": "Equinix",
    "name": "MA1 - Manchester",
    "city": "Manchester",
    "country": "United Kingdom",
    "region": "Europe",
    "address": "Williams House, Manchester Science Park, Manchester M15 6SE",
    "latitude": 53.4808,
    "longitude": -2.2426,
    "features": ["24/7 Support", "Redundant Power", "High Security", "Carrier Neutral"],
    "connectivity": "Multiple carriers available"
  },
  {
    "id": "equinix-ma3",
    "provider": "Equinix",
    "name": "MA3 - Manchester",
    "city": "Manchester",
    "country": "United Kingdom",
    "region": "Europe",
    "address": "Williams House, Manchester Science Park, Manchester M15 6SE",
    "latitude": 53.4808,
    "longitude": -2.2426,
    "features": ["24/7 Support", "Redundant Power", "High Security", "Carrier Neutral"],
    "connectivity": "Multiple carriers available"
  },
  {
    "id": "equinix-ma4",
    "provider": "Equinix",
    "name": "MA4 - Manchester",
    "city": "Manchester",
    "country": "United Kingdom",
    "region": "Europe",
    "address": "Williams House, Manchester Science Park, Manchester M15 6SE",
    "latitude": 53.4808,
    "longitude": -2.2426,
    "features": ["24/7 Support", "Redundant Power", "High Security", "Carrier Neutral"],
    "connectivity": "Multiple carriers available"
  },
  {
    "id": "equinix-ma5",
    "provider": "Equinix",
    "name": "MA5 - Manchester",
    "city": "Manchester",
    "country": "United Kingdom",
    "region": "Europe",
    "address": "Williams House, Manchester Science Park, Manchester M15 6SE",
    "latitude": 53.4808,
    "longitude": -2.2426,
    "features": ["24/7 Support", "Redundant Power", "High Security", "Carrier Neutral"],
    "connectivity": "Multiple carriers available"
  },
  {
    "id": "equinix-fr2",
    "provider": "Equinix",
    "name": "FR2 - Frankfurt",
    "city": "Frankfurt",
    "country": "Germany",
    "region": "Europe",
    "address": "Kleyerstraße 90, 60326 Frankfurt am Main",
    "latitude": 50.1109,
    "longitude": 8.6821,
    "features": ["24/7 Support", "Redundant Power", "High Security", "Carrier Neutral"],
    "connectivity": "Multiple carriers available"
  },
  {
    "id": "equinix-fr4",
    "provider": "Equinix",
    "name": "FR4 - Frankfurt",
    "city": "Frankfurt",
    "country": "Germany",
    "region": "Europe",
    "address": "Kleyerstraße 90, 60326 Frankfurt am Main",
    "latitude": 50.1109,
    "longitude": 8.6821,
    "features": ["24/7 Support", "Redundant Power", "High Security", "Carrier Neutral"],
    "connectivity": "Multiple carriers available"
  },
  {
    "id": "equinix-fr5",
    "provider": "Equinix",
    "name": "FR5 - Frankfurt",
    "city": "Frankfurt",
    "country": "Germany",
    "region": "Europe",
    "address": "Kleyerstraße 90, 60326 Frankfurt am Main",
    "latitude": 50.1109,
    "longitude": 8.6821,
    "features": ["24/7 Support", "Redundant Power", "High Security", "Carrier Neutral"],
    "connectivity": "Multiple carriers available"
  }
]
  ,{
    "id": "equinix-fr6",
    "provider": "Equinix",
    "name": "FR6 - Frankfurt",
    "city": "Frankfurt",
    "country": "Germany",
    "region": "Europe",
    "address": "Kleyerstraße 90, 60326 Frankfurt am Main",
    "latitude": 50.1109,
    "longitude": 8.6821,
    "features": ["24/7 Support", "Redundant Power", "High Security", "Carrier Neutral"],
    "connectivity": "Multiple carriers available"
  },
  {
    "id": "equinix-fr7",
    "provider": "Equinix",
    "name": "FR7 - Frankfurt",
    "city": "Frankfurt",
    "country": "Germany",
    "region": "Europe",
    "address": "Kleyerstraße 90, 60326 Frankfurt am Main",
    "latitude": 50.1109,
    "longitude": 8.6821,
    "features": ["24/7 Support", "Redundant Power", "High Security", "Carrier Neutral"],
    "connectivity": "Multiple carriers available"
  },
  {
    "id": "equinix-fr8",
    "provider": "Equinix",
    "name": "FR8 - Frankfurt",
    "city": "Frankfurt",
    "country": "Germany",
    "region": "Europe",
    "address": "Kleyerstraße 90, 60326 Frankfurt am Main",
    "latitude": 50.1109,
    "longitude": 8.6821,
    "features": ["24/7 Support", "Redundant Power", "High Security", "Carrier Neutral"],
    "connectivity": "Multiple carriers available"
  },
  {
    "id": "equinix-mu1",
    "provider": "Equinix",
    "name": "MU1 - Munich",
    "city": "Munich",
    "country": "Germany",
    "region": "Europe",
    "address": "Lichtenbergstraße 8, 85748 Garching",
    "latitude": 48.1351,
    "longitude": 11.5820,
    "features": ["24/7 Support", "Redundant Power", "High Security", "Carrier Neutral"],
    "connectivity": "Multiple carriers available"
  },
  {
    "id": "equinix-mu3",
    "provider": "Equinix",
    "name": "MU3 - Munich",
    "city": "Munich",
    "country": "Germany",
    "region": "Europe",
    "address": "Lichtenbergstraße 8, 85748 Garching",
    "latitude": 48.1351,
    "longitude": 11.5820,
    "features": ["24/7 Support", "Redundant Power", "High Security", "Carrier Neutral"],
    "connectivity": "Multiple carriers available"
  },
  {
    "id": "equinix-mu4",
    "provider": "Equinix",
    "name": "MU4 - Aschheim",
    "city": "Munich",
    "country": "Germany",
    "region": "Europe",
    "address": "Dornacher Straße 3, 85609 Aschheim",
    "latitude": 48.1351,
    "longitude": 11.5820,
    "features": ["24/7 Support", "Redundant Power", "High Security", "Carrier Neutral"],
    "connectivity": "Multiple carriers available"
  },
  {
    "id": "equinix-hh1",
    "provider": "Equinix",
    "name": "HH1 - Hamburg",
    "city": "Hamburg",
    "country": "Germany",
    "region": "Europe",
    "address": "Süderstraße 198, 20537 Hamburg",
    "latitude": 53.5511,
    "longitude": 9.9937,
    "features": ["24/7 Support", "Redundant Power", "High Security", "Carrier Neutral"],
    "connectivity": "Multiple carriers available"
  },
  {
    "id": "equinix-am1",
    "provider": "Equinix",
    "name": "AM1 - Amsterdam",
    "city": "Amsterdam",
    "country": "Netherlands",
    "region": "Europe",
    "address": "Kuiperbergweg 13, 1101 AG Amsterdam",
    "latitude": 52.3676,
    "longitude": 4.9041,
    "features": ["24/7 Support", "Redundant Power", "High Security", "Carrier Neutral"],
    "connectivity": "Multiple carriers available"
  },
  {
    "id": "equinix-am2",
    "provider": "Equinix",
    "name": "AM2 - Amsterdam",
    "city": "Amsterdam",
    "country": "Netherlands",
    "region": "Europe",
    "address": "Kuiperbergweg 13, 1101 AG Amsterdam",
    "latitude": 52.3676,
    "longitude": 4.9041,
    "features": ["24/7 Support", "Redundant Power", "High Security", "Carrier Neutral"],
    "connectivity": "Multiple carriers available"
  },
  {
    "id": "equinix-am3",
    "provider": "Equinix",
    "name": "AM3 - Amsterdam",
    "city": "Amsterdam",
    "country": "Netherlands",
    "region": "Europe",
    "address": "Kuiperbergweg 13, 1101 AG Amsterdam",
    "latitude": 52.3676,
    "longitude": 4.9041,
    "features": ["24/7 Support", "Redundant Power", "High Security", "Carrier Neutral"],
    "connectivity": "Multiple carriers available"
  },
  {
    "id": "equinix-am4",
    "provider": "Equinix",
    "name": "AM4 - Amsterdam",
    "city": "Amsterdam",
    "country": "Netherlands",
    "region": "Europe",
    "address": "Kuiperbergweg 13, 1101 AG Amsterdam",
    "latitude": 52.3676,
    "longitude": 4.9041,
    "features": ["24/7 Support", "Redundant Power", "High Security", "Carrier Neutral"],
    "connectivity": "Multiple carriers available"
  },
  {
    "id": "equinix-am5",
    "provider": "Equinix",
    "name": "AM5 - Amsterdam",
    "city": "Amsterdam",
    "country": "Netherlands",
    "region": "Europe",
    "address": "Kuiperbergweg 13, 1101 AG Amsterdam",
    "latitude": 52.3676,
    "longitude": 4.9041,
    "features": ["24/7 Support", "Redundant Power", "High Security", "Carrier Neutral"],
    "connectivity": "Multiple carriers available"
  },
  {
    "id": "equinix-am6",
    "provider": "Equinix",
    "name": "AM6 - Amsterdam",
    "city": "Amsterdam",
    "country": "Netherlands",
    "region": "Europe",
    "address": "Kuiperbergweg 13, 1101 AG Amsterdam",
    "latitude": 52.3676,
    "longitude": 4.9041,
    "features": ["24/7 Support", "Redundant Power", "High Security", "Carrier Neutral"],
    "connectivity": "Multiple carriers available"
  },
  {
    "id": "equinix-am7",
    "provider": "Equinix",
    "name": "AM7 - Amsterdam",
    "city": "Amsterdam",
    "country": "Netherlands",
    "region": "Europe",
    "address": "Kuiperbergweg 13, 1101 AG Amsterdam",
    "latitude": 52.3676,
    "longitude": 4.9041,
    "features": ["24/7 Support", "Redundant Power", "High Security", "Carrier Neutral"],
    "connectivity": "Multiple carriers available"
  },
  {
    "id": "equinix-am8",
    "provider": "Equinix",
    "name": "AM8 - Amsterdam",
    "city": "Amsterdam",
    "country": "Netherlands",
    "region": "Europe",
    "address": "Kuiperbergweg 13, 1101 AG Amsterdam",
    "latitude": 52.3676,
    "longitude": 4.9041,
    "features": ["24/7 Support", "Redundant Power", "High Security", "Carrier Neutral"],
    "connectivity": "Multiple carriers available"
  }
]
  ,{
    "id": "equinix-pa2",
    "provider": "Equinix",
    "name": "PA2 - Paris",
    "city": "Paris",
    "country": "France",
    "region": "Europe",
    "address": "114 Rue Ambroise Croizat, 93200 Saint-Denis",
    "latitude": 48.8566,
    "longitude": 2.3522,
    "features": ["24/7 Support", "Redundant Power", "High Security", "Carrier Neutral"],
    "connectivity": "Multiple carriers available"
  },
  {
    "id": "equinix-pa3",
    "provider": "Equinix",
    "name": "PA3 - Paris",
    "city": "Paris",
    "country": "France",
    "region": "Europe",
    "address": "114 Rue Ambroise Croizat, 93200 Saint-Denis",
    "latitude": 48.8566,
    "longitude": 2.3522,
    "features": ["24/7 Support", "Redundant Power", "High Security", "Carrier Neutral"],
    "connectivity": "Multiple carriers available"
  },
  {
    "id": "equinix-pa4",
    "provider": "Equinix",
    "name": "PA4 - Paris",
    "city": "Paris",
    "country": "France",
    "region": "Europe",
    "address": "52 Rue Camille Desmoulins, 92130 Issy-les-Moulineaux",
    "latitude": 48.8566,
    "longitude": 2.3522,
    "features": ["24/7 Support", "Redundant Power", "High Security", "Carrier Neutral"],
    "connectivity": "Multiple carriers available"
  },
  {
    "id": "equinix-pa5",
    "provider": "Equinix",
    "name": "PA5 - Paris",
    "city": "Paris",
    "country": "France",
    "region": "Europe",
    "address": "52 Rue Camille Desmoulins, 92130 Issy-les-Moulineaux",
    "latitude": 48.8566,
    "longitude": 2.3522,
    "features": ["24/7 Support", "Redundant Power", "High Security", "Carrier Neutral"],
    "connectivity": "Multiple carriers available"
  },
  {
    "id": "equinix-pa6",
    "provider": "Equinix",
    "name": "PA6 - Paris",
    "city": "Paris",
    "country": "France",
    "region": "Europe",
    "address": "52 Rue Camille Desmoulins, 92130 Issy-les-Moulineaux",
    "latitude": 48.8566,
    "longitude": 2.3522,
    "features": ["24/7 Support", "Redundant Power", "High Security", "Carrier Neutral"],
    "connectivity": "Multiple carriers available"
  },
  {
    "id": "equinix-pa7",
    "provider": "Equinix",
    "name": "PA7 - Paris",
    "city": "Paris",
    "country": "France",
    "region": "Europe",
    "address": "52 Rue Camille Desmoulins, 92130 Issy-les-Moulineaux",
    "latitude": 48.8566,
    "longitude": 2.3522,
    "features": ["24/7 Support", "Redundant Power", "High Security", "Carrier Neutral"],
    "connectivity": "Multiple carriers available"
  },
  {
    "id": "equinix-pa10",
    "provider": "Equinix",
    "name": "PA10 - Paris",
    "city": "Paris",
    "country": "France",
    "region": "Europe",
    "address": "114 Rue Ambroise Croizat, 93200 Saint-Denis",
    "latitude": 48.8566,
    "longitude": 2.3522,
    "features": ["24/7 Support", "Redundant Power", "High Security", "Carrier Neutral"],
    "connectivity": "Multiple carriers available"
  },
  {
    "id": "equinix-md1",
    "provider": "Equinix",
    "name": "MD1 - Madrid",
    "city": "Madrid",
    "country": "Spain",
    "region": "Europe",
    "address": "Calle de Alcalá, 61, 28014 Madrid",
    "latitude": 40.4168,
    "longitude": -3.7038,
    "features": ["24/7 Support", "Redundant Power", "High Security", "Carrier Neutral"],
    "connectivity": "Multiple carriers available"
  },
  {
    "id": "equinix-md2",
    "provider": "Equinix",
    "name": "MD2 - Madrid",
    "city": "Madrid",
    "country": "Spain",
    "region": "Europe",
    "address": "Calle de Alcalá, 61, 28014 Madrid",
    "latitude": 40.4168,
    "longitude": -3.7038,
    "features": ["24/7 Support", "Redundant Power", "High Security", "Carrier Neutral"],
    "connectivity": "Multiple carriers available"
  },
  {
    "id": "equinix-md6",
    "provider": "Equinix",
    "name": "MD6 - Madrid",
    "city": "Madrid",
    "country": "Spain",
    "region": "Europe",
    "address": "Calle de Alcalá, 61, 28014 Madrid",
    "latitude": 40.4168,
    "longitude": -3.7038,
    "features": ["24/7 Support", "Redundant Power", "High Security", "Carrier Neutral"],
    "connectivity": "Multiple carriers available"
  },
  {
    "id": "equinix-ml2",
    "provider": "Equinix",
    "name": "ML2 - Milan",
    "city": "Milan",
    "country": "Italy",
    "region": "Europe",
    "address": "Via Caldera, 21, 20153 Milano MI",
    "latitude": 45.4642,
    "longitude": 9.1900,
    "features": ["24/7 Support", "Redundant Power", "High Security", "Carrier Neutral"],
    "connectivity": "Multiple carriers available"
  },
  {
    "id": "equinix-ml3",
    "provider": "Equinix",
    "name": "ML3 - Milan",
    "city": "Milan",
    "country": "Italy",
    "region": "Europe",
    "address": "Via Caldera, 21, 20153 Milano MI",
    "latitude": 45.4642,
    "longitude": 9.1900,
    "features": ["24/7 Support", "Redundant Power", "High Security", "Carrier Neutral"],
    "connectivity": "Multiple carriers available"
  },
  {
    "id": "equinix-ml5",
    "provider": "Equinix",
    "name": "ML5 - Milan",
    "city": "Milan",
    "country": "Italy",
    "region": "Europe",
    "address": "Via Caldera, 21, 20153 Milano MI",
    "latitude": 45.4642,
    "longitude": 9.1900,
    "features": ["24/7 Support", "Redundant Power", "High Security", "Carrier Neutral"],
    "connectivity": "Multiple carriers available"
  },
  {
    "id": "equinix-sk1",
    "provider": "Equinix",
    "name": "SK1 - Stockholm",
    "city": "Stockholm",
    "country": "Sweden",
    "region": "Europe",
    "address": "Isafjordsgatan 32C, 164 40 Kista",
    "latitude": 59.3293,
    "longitude": 18.0686,
    "features": ["24/7 Support", "Redundant Power", "High Security", "Carrier Neutral"],
    "connectivity": "Multiple carriers available"
  },
  {
    "id": "equinix-sk2",
    "provider": "Equinix",
    "name": "SK2 - Stockholm",
    "city": "Stockholm",
    "country": "Sweden",
    "region": "Europe",
    "address": "Isafjordsgatan 32C, 164 40 Kista",
    "latitude": 59.3293,
    "longitude": 18.0686,
    "features": ["24/7 Support", "Redundant Power", "High Security", "Carrier Neutral"],
    "connectivity": "Multiple carriers available"
  }
]
  ,{
    "id": "equinix-sy1",
    "provider": "Equinix",
    "name": "SY1 - Sydney",
    "city": "Sydney",
    "country": "Australia",
    "region": "Asia Pacific",
    "address": "47 Bourke Road, Alexandria NSW 2015",
    "latitude": -33.8688,
    "longitude": 151.2093,
    "features": ["24/7 Support", "Redundant Power", "High Security", "Carrier Neutral"],
    "connectivity": "Multiple carriers available"
  },
  {
    "id": "equinix-sy2",
    "provider": "Equinix",
    "name": "SY2 - Sydney",
    "city": "Sydney",
    "country": "Australia",
    "region": "Asia Pacific",
    "address": "47 Bourke Road, Alexandria NSW 2015",
    "latitude": -33.8688,
    "longitude": 151.2093,
    "features": ["24/7 Support", "Redundant Power", "High Security", "Carrier Neutral"],
    "connectivity": "Multiple carriers available"
  },
  {
    "id": "equinix-sy3",
    "provider": "Equinix",
    "name": "SY3 - Sydney",
    "city": "Sydney",
    "country": "Australia",
    "region": "Asia Pacific",
    "address": "47 Bourke Road, Alexandria NSW 2015",
    "latitude": -33.8688,
    "longitude": 151.2093,
    "features": ["24/7 Support", "Redundant Power", "High Security", "Carrier Neutral"],
    "connectivity": "Multiple carriers available"
  },
  {
    "id": "equinix-sy4",
    "provider": "Equinix",
    "name": "SY4 - Sydney",
    "city": "Sydney",
    "country": "Australia",
    "region": "Asia Pacific",
    "address": "47 Bourke Road, Alexandria NSW 2015",
    "latitude": -33.8688,
    "longitude": 151.2093,
    "features": ["24/7 Support", "Redundant Power", "High Security", "Carrier Neutral"],
    "connectivity": "Multiple carriers available"
  },
  {
    "id": "equinix-sy5",
    "provider": "Equinix",
    "name": "SY5 - Sydney",
    "city": "Sydney",
    "country": "Australia",
    "region": "Asia Pacific",
    "address": "47 Bourke Road, Alexandria NSW 2015",
    "latitude": -33.8688,
    "longitude": 151.2093,
    "features": ["24/7 Support", "Redundant Power", "High Security", "Carrier Neutral"],
    "connectivity": "Multiple carriers available"
  },
  {
    "id": "equinix-me1",
    "provider": "Equinix",
    "name": "ME1 - Melbourne",
    "city": "Melbourne",
    "country": "Australia",
    "region": "Asia Pacific",
    "address": "820 Lorimer Street, Port Melbourne VIC 3207",
    "latitude": -37.8136,
    "longitude": 144.9631,
    "features": ["24/7 Support", "Redundant Power", "High Security", "Carrier Neutral"],
    "connectivity": "Multiple carriers available"
  },
  {
    "id": "equinix-me2",
    "provider": "Equinix",
    "name": "ME2 - Melbourne",
    "city": "Melbourne",
    "country": "Australia",
    "region": "Asia Pacific",
    "address": "820 Lorimer Street, Port Melbourne VIC 3207",
    "latitude": -37.8136,
    "longitude": 144.9631,
    "features": ["24/7 Support", "Redundant Power", "High Security", "Carrier Neutral"],
    "connectivity": "Multiple carriers available"
  },
  {
    "id": "equinix-me4",
    "provider": "Equinix",
    "name": "ME4 - Melbourne",
    "city": "Melbourne",
    "country": "Australia",
    "region": "Asia Pacific",
    "address": "820 Lorimer Street, Port Melbourne VIC 3207",
    "latitude": -37.8136,
    "longitude": 144.9631,
    "features": ["24/7 Support", "Redundant Power", "High Security", "Carrier Neutral"],
    "connectivity": "Multiple carriers available"
  },
  {
    "id": "equinix-pe1",
    "provider": "Equinix",
    "name": "PE1 - Perth",
    "city": "Perth",
    "country": "Australia",
    "region": "Asia Pacific",
    "address": "239 Adelaide Terrace, Perth WA 6000",
    "latitude": -31.9505,
    "longitude": 115.8605,
    "features": ["24/7 Support", "Redundant Power", "High Security", "Carrier Neutral"],
    "connectivity": "Multiple carriers available"
  },
  {
    "id": "equinix-pe2",
    "provider": "Equinix",
    "name": "PE2 - Perth",
    "city": "Perth",
    "country": "Australia",
    "region": "Asia Pacific",
    "address": "239 Adelaide Terrace, Perth WA 6000",
    "latitude": -31.9505,
    "longitude": 115.8605,
    "features": ["24/7 Support", "Redundant Power", "High Security", "Carrier Neutral"],
    "connectivity": "Multiple carriers available"
  },
  {
    "id": "equinix-sg1",
    "provider": "Equinix",
    "name": "SG1 - Singapore",
    "city": "Singapore",
    "country": "Singapore",
    "region": "Asia Pacific",
    "address": "20 Ayer Rajah Crescent, Singapore 139964",
    "latitude": 1.3521,
    "longitude": 103.8198,
    "features": ["24/7 Support", "Redundant Power", "High Security", "Carrier Neutral"],
    "connectivity": "Multiple carriers available"
  },
  {
    "id": "equinix-sg2",
    "provider": "Equinix",
    "name": "SG2 - Singapore",
    "city": "Singapore",
    "country": "Singapore",
    "region": "Asia Pacific",
    "address": "20 Ayer Rajah Crescent, Singapore 139964",
    "latitude": 1.3521,
    "longitude": 103.8198,
    "features": ["24/7 Support", "Redundant Power", "High Security", "Carrier Neutral"],
    "connectivity": "Multiple carriers available"
  },
  {
    "id": "equinix-sg3",
    "provider": "Equinix",
    "name": "SG3 - Singapore",
    "city": "Singapore",
    "country": "Singapore",
    "region": "Asia Pacific",
    "address": "20 Ayer Rajah Crescent, Singapore 139964",
    "latitude": 1.3521,
    "longitude": 103.8198,
    "features": ["24/7 Support", "Redundant Power", "High Security", "Carrier Neutral"],
    "connectivity": "Multiple carriers available"
  },
  {
    "id": "equinix-sg4",
    "provider": "Equinix",
    "name": "SG4 - Singapore",
    "city": "Singapore",
    "country": "Singapore",
    "region": "Asia Pacific",
    "address": "20 Ayer Rajah Crescent, Singapore 139964",
    "latitude": 1.3521,
    "longitude": 103.8198,
    "features": ["24/7 Support", "Redundant Power", "High Security", "Carrier Neutral"],
    "connectivity": "Multiple carriers available"
  },
  {
    "id": "equinix-sg5",
    "provider": "Equinix",
    "name": "SG5 - Singapore",
    "city": "Singapore",
    "country": "Singapore",
    "region": "Asia Pacific",
    "address": "20 Ayer Rajah Crescent, Singapore 139964",
    "latitude": 1.3521,
    "longitude": 103.8198,
    "features": ["24/7 Support", "Redundant Power", "High Security", "Carrier Neutral"],
    "connectivity": "Multiple carriers available"
  },
  {
    "id": "equinix-ty2",
    "provider": "Equinix",
    "name": "TY2 - Tokyo",
    "city": "Tokyo",
    "country": "Japan",
    "region": "Asia Pacific",
    "address": "Otemachi Financial City Grand Cube, Tokyo 100-0004",
    "latitude": 35.6762,
    "longitude": 139.6503,
    "features": ["24/7 Support", "Redundant Power", "High Security", "Carrier Neutral"],
    "connectivity": "Multiple carriers available"
  }
]
  ,{
    "id": "equinix-ty3",
    "provider": "Equinix",
    "name": "TY3 - Tokyo",
    "city": "Tokyo",
    "country": "Japan",
    "region": "Asia Pacific",
    "address": "Otemachi Financial City Grand Cube, Tokyo 100-0004",
    "latitude": 35.6762,
    "longitude": 139.6503,
    "features": ["24/7 Support", "Redundant Power", "High Security", "Carrier Neutral"],
    "connectivity": "Multiple carriers available"
  },
  {
    "id": "equinix-ty4",
    "provider": "Equinix",
    "name": "TY4 - Tokyo",
    "city": "Tokyo",
    "country": "Japan",
    "region": "Asia Pacific",
    "address": "Otemachi Financial City Grand Cube, Tokyo 100-0004",
    "latitude": 35.6762,
    "longitude": 139.6503,
    "features": ["24/7 Support", "Redundant Power", "High Security", "Carrier Neutral"],
    "connectivity": "Multiple carriers available"
  },
  {
    "id": "equinix-ty5",
    "provider": "Equinix",
    "name": "TY5 - Tokyo",
    "city": "Tokyo",
    "country": "Japan",
    "region": "Asia Pacific",
    "address": "Otemachi Financial City Grand Cube, Tokyo 100-0004",
    "latitude": 35.6762,
    "longitude": 139.6503,
    "features": ["24/7 Support", "Redundant Power", "High Security", "Carrier Neutral"],
    "connectivity": "Multiple carriers available"
  },
  {
    "id": "equinix-ty6",
    "provider": "Equinix",
    "name": "TY6 - Tokyo",
    "city": "Tokyo",
    "country": "Japan",
    "region": "Asia Pacific",
    "address": "Otemachi Financial City Grand Cube, Tokyo 100-0004",
    "latitude": 35.6762,
    "longitude": 139.6503,
    "features": ["24/7 Support", "Redundant Power", "High Security", "Carrier Neutral"],
    "connectivity": "Multiple carriers available"
  },
  {
    "id": "equinix-ty7",
    "provider": "Equinix",
    "name": "TY7 - Tokyo",
    "city": "Tokyo",
    "country": "Japan",
    "region": "Asia Pacific",
    "address": "Otemachi Financial City Grand Cube, Tokyo 100-0004",
    "latitude": 35.6762,
    "longitude": 139.6503,
    "features": ["24/7 Support", "Redundant Power", "High Security", "Carrier Neutral"],
    "connectivity": "Multiple carriers available"
  },
  {
    "id": "equinix-ty8",
    "provider": "Equinix",
    "name": "TY8 - Tokyo",
    "city": "Tokyo",
    "country": "Japan",
    "region": "Asia Pacific",
    "address": "Otemachi Financial City Grand Cube, Tokyo 100-0004",
    "latitude": 35.6762,
    "longitude": 139.6503,
    "features": ["24/7 Support", "Redundant Power", "High Security", "Carrier Neutral"],
    "connectivity": "Multiple carriers available"
  },
  {
    "id": "equinix-ty9",
    "provider": "Equinix",
    "name": "TY9 - Tokyo",
    "city": "Tokyo",
    "country": "Japan",
    "region": "Asia Pacific",
    "address": "Otemachi Financial City Grand Cube, Tokyo 100-0004",
    "latitude": 35.6762,
    "longitude": 139.6503,
    "features": ["24/7 Support", "Redundant Power", "High Security", "Carrier Neutral"],
    "connectivity": "Multiple carriers available"
  },
  {
    "id": "equinix-ty10",
    "provider": "Equinix",
    "name": "TY10 - Tokyo",
    "city": "Tokyo",
    "country": "Japan",
    "region": "Asia Pacific",
    "address": "Otemachi Financial City Grand Cube, Tokyo 100-0004",
    "latitude": 35.6762,
    "longitude": 139.6503,
    "features": ["24/7 Support", "Redundant Power", "High Security", "Carrier Neutral"],
    "connectivity": "Multiple carriers available"
  },
  {
    "id": "equinix-ty11",
    "provider": "Equinix",
    "name": "TY11 - Tokyo",
    "city": "Tokyo",
    "country": "Japan",
    "region": "Asia Pacific",
    "address": "Otemachi Financial City Grand Cube, Tokyo 100-0004",
    "latitude": 35.6762,
    "longitude": 139.6503,
    "features": ["24/7 Support", "Redundant Power", "High Security", "Carrier Neutral"],
    "connectivity": "Multiple carriers available"
  },
  {
    "id": "equinix-os1",
    "provider": "Equinix",
    "name": "OS1 - Osaka",
    "city": "Osaka",
    "country": "Japan",
    "region": "Asia Pacific",
    "address": "1-8-16 Kyutaro-machi, Chuo-ku, Osaka 541-0056",
    "latitude": 34.6937,
    "longitude": 135.5023,
    "features": ["24/7 Support", "Redundant Power", "High Security", "Carrier Neutral"],
    "connectivity": "Multiple carriers available"
  },
  {
    "id": "equinix-os3",
    "provider": "Equinix",
    "name": "OS3 - Osaka",
    "city": "Osaka",
    "country": "Japan",
    "region": "Asia Pacific",
    "address": "1-8-16 Kyutaro-machi, Chuo-ku, Osaka 541-0056",
    "latitude": 34.6937,
    "longitude": 135.5023,
    "features": ["24/7 Support", "Redundant Power", "High Security", "Carrier Neutral"],
    "connectivity": "Multiple carriers available"
  },
  {
    "id": "equinix-os4",
    "provider": "Equinix",
    "name": "OS4 - Osaka",
    "city": "Osaka",
    "country": "Japan",
    "region": "Asia Pacific",
    "address": "1-8-16 Kyutaro-machi, Chuo-ku, Osaka 541-0056",
    "latitude": 34.6937,
    "longitude": 135.5023,
    "features": ["24/7 Support", "Redundant Power", "High Security", "Carrier Neutral"],
    "connectivity": "Multiple carriers available"
  },
  {
    "id": "equinix-hk1",
    "provider": "Equinix",
    "name": "HK1 - Hong Kong",
    "city": "Hong Kong",
    "country": "Hong Kong",
    "region": "Asia Pacific",
    "address": "Units 2001-2005, 20/F, MEGA-i, 398 Kwun Tong Road",
    "latitude": 22.3193,
    "longitude": 114.1694,
    "features": ["24/7 Support", "Redundant Power", "High Security", "Carrier Neutral"],
    "connectivity": "Multiple carriers available"
  },
  {
    "id": "equinix-hk2",
    "provider": "Equinix",
    "name": "HK2 - Hong Kong",
    "city": "Hong Kong",
    "country": "Hong Kong",
    "region": "Asia Pacific",
    "address": "Units 2001-2005, 20/F, MEGA-i, 398 Kwun Tong Road",
    "latitude": 22.3193,
    "longitude": 114.1694,
    "features": ["24/7 Support", "Redundant Power", "High Security", "Carrier Neutral"],
    "connectivity": "Multiple carriers available"
  },
  {
    "id": "equinix-hk3",
    "provider": "Equinix",
    "name": "HK3 - Hong Kong",
    "city": "Hong Kong",
    "country": "Hong Kong",
    "region": "Asia Pacific",
    "address": "Units 2001-2005, 20/F, MEGA-i, 398 Kwun Tong Road",
    "latitude": 22.3193,
    "longitude": 114.1694,
    "features": ["24/7 Support", "Redundant Power", "High Security", "Carrier Neutral"],
    "connectivity": "Multiple carriers available"
  },
  {
    "id": "equinix-hk4",
    "provider": "Equinix",
    "name": "HK4 - Hong Kong",
    "city": "Hong Kong",
    "country": "Hong Kong",
    "region": "Asia Pacific",
    "address": "Units 2001-2005, 20/F, MEGA-i, 398 Kwun Tong Road",
    "latitude": 22.3193,
    "longitude": 114.1694,
    "features": ["24/7 Support", "Redundant Power", "High Security", "Carrier Neutral"],
    "connectivity": "Multiple carriers available"
  },
  {
    "id": "equinix-hk5",
    "provider": "Equinix",
    "name": "HK5 - Hong Kong",
    "city": "Hong Kong",
    "country": "Hong Kong",
    "region": "Asia Pacific",
    "address": "Units 2001-2005, 20/F, MEGA-i, 398 Kwun Tong Road",
    "latitude": 22.3193,
    "longitude": 114.1694,
    "features": ["24/7 Support", "Redundant Power", "High Security", "Carrier Neutral"],
    "connectivity": "Multiple carriers available"
  }
]