[
  {
    "id": "megaport-lax",
    "provider": "Megaport",
    "name": "Los Angeles",
    "city": "Los Angeles",
    "country": "United States",
    "region": "North America",
    "address": "One Wilshire, 624 S Grand Ave, Los Angeles, CA 90017",
    "latitude": 34.0522,
    "longitude": -118.2437,
    "features": ["Cloud Connectivity", "Software Defined", "Global Reach"],
    "connectivity": "Direct cloud connections"
  },
  {
    "id": "megaport-fra",
    "provider": "Megaport",
    "name": "Frankfurt",
    "city": "Frankfurt",
    "country": "Germany",
    "region": "Europe",
    "address": "Hanauer Landstra√üe 302, 60314 Frankfurt am Main",
    "latitude": 50.1109,
    "longitude": 8.6821,
    "features": ["Cloud Connectivity", "Software Defined", "Global Reach"],
    "connectivity": "Direct cloud connections"
  },
  {
    "id": "megaport-sin",
    "provider": "Megaport",
    "name": "Singapore",
    "city": "Singapore",
    "country": "Singapore",
    "region": "Asia Pacific",
    "address": "20 Ayer Rajah Crescent, Singapore 139964",
    "latitude": 1.3521,
    "longitude": 103.8198,
    "features": ["Cloud Connectivity", "Software Defined", "Global Reach"],
    "connectivity": "Direct cloud connections"
  }
]