[
  {
    "id": "megaport-ash1",
    "provider": "Megaport",
    "name": "Ashburn",
    "city": "Ashburn",
    "country": "United States",
    "region": "North America",
    "address": "21715 Filigree Court, Ashburn, VA 20147",
    "latitude": 39.0458,
    "longitude": -77.4874,
    "features": ["Software Defined Network", "Cloud Connectivity", "Global Reach", "On-Demand Provisioning"],
    "connectivity": "Direct cloud connections to AWS, Azure, Google Cloud"
  },
  {
    "id": "megaport-atl1",
    "provider": "Megaport",
    "name": "Atlanta",
    "city": "Atlanta",
    "country": "United States",
    "region": "North America",
    "address": "56 Marietta Street NW, Atlanta, GA 30303",
    "latitude": 33.7490,
    "longitude": -84.3880,
    "features": ["Software Defined Network", "Cloud Connectivity", "Global Reach", "On-Demand Provisioning"],
    "connectivity": "Direct cloud connections to AWS, Azure, Google Cloud"
  },
  {
    "id": "megaport-bos1",
    "provider": "Megaport",
    "name": "Boston",
    "city": "Boston",
    "country": "United States",
    "region": "North America",
    "address": "200 Paul Avenue, Boston, MA 02128",
    "latitude": 42.3601,
    "longitude": -71.0589,
    "features": ["Software Defined Network", "Cloud Connectivity", "Global Reach", "On-Demand Provisioning"],
    "connectivity": "Direct cloud connections to AWS, Azure, Google Cloud"
  },
  {
    "id": "megaport-chi1",
    "provider": "Megaport",
    "name": "Chicago",
    "city": "Chicago",
    "country": "United States",
    "region": "North America",
    "address": "350 E Cermak Rd, Chicago, IL 60616",
    "latitude": 41.8781,
    "longitude": -87.6298,
    "features": ["Software Defined Network", "Cloud Connectivity", "Global Reach", "On-Demand Provisioning"],
    "connectivity": "Direct cloud connections to AWS, Azure, Google Cloud"
  },
  {
    "id": "megaport-dal1",
    "provider": "Megaport",
    "name": "Dallas",
    "city": "Dallas",
    "country": "United States",
    "region": "North America",
    "address": "1950 North Stemmons Freeway, Dallas, TX 75207",
    "latitude": 32.7767,
    "longitude": -96.7970,
    "features": ["Software Defined Network", "Cloud Connectivity", "Global Reach", "On-Demand Provisioning"],
    "connectivity": "Direct cloud connections to AWS, Azure, Google Cloud"
  },
  {
    "id": "megaport-den1",
    "provider": "Megaport",
    "name": "Denver",
    "city": "Denver",
    "country": "United States",
    "region": "North America",
    "address": "1275 South Colorado Boulevard, Denver, CO 80246",
    "latitude": 39.7392,
    "longitude": -104.9903,
    "features": ["Software Defined Network", "Cloud Connectivity", "Global Reach", "On-Demand Provisioning"],
    "connectivity": "Direct cloud connections to AWS, Azure, Google Cloud"
  },
  {
    "id": "megaport-lax1",
    "provider": "Megaport",
    "name": "Los Angeles",
    "city": "Los Angeles",
    "country": "United States",
    "region": "North America",
    "address": "One Wilshire, 624 S Grand Ave, Los Angeles, CA 90017",
    "latitude": 34.0522,
    "longitude": -118.2437,
    "features": ["Software Defined Network", "Cloud Connectivity", "Global Reach", "On-Demand Provisioning"],
    "connectivity": "Direct cloud connections to AWS, Azure, Google Cloud"
  },
  {
    "id": "megaport-mia1",
    "provider": "Megaport",
    "name": "Miami",
    "city": "Miami",
    "country": "United States",
    "region": "North America",
    "address": "50 Northeast 9th Street, Miami, FL 33132",
    "latitude": 25.7617,
    "longitude": -80.1918,
    "features": ["Software Defined Network", "Cloud Connectivity", "Global Reach", "On-Demand Provisioning"],
    "connectivity": "Direct cloud connections to AWS, Azure, Google Cloud"
  },
  {
    "id": "megaport-ny1",
    "provider": "Megaport",
    "name": "New York",
    "city": "New York",
    "country": "United States",
    "region": "North America",
    "address": "32 Avenue of the Americas, New York, NY 10013",
    "latitude": 40.7128,
    "longitude": -74.0060,
    "features": ["Software Defined Network", "Cloud Connectivity", "Global Reach", "On-Demand Provisioning"],
    "connectivity": "Direct cloud connections to AWS, Azure, Google Cloud"
  },
  {
    "id": "megaport-phx1",
    "provider": "Megaport",
    "name": "Phoenix",
    "city": "Phoenix",
    "country": "United States",
    "region": "North America",
    "address": "2323 W Dunlap Ave, Phoenix, AZ 85021",
    "latitude": 33.4484,
    "longitude": -112.0740,
    "features": ["Software Defined Network", "Cloud Connectivity", "Global Reach", "On-Demand Provisioning"],
    "connectivity": "Direct cloud connections to AWS, Azure, Google Cloud"
  },
  {
    "id": "megaport-sea1",
    "provider": "Megaport",
    "name": "Seattle",
    "city": "Seattle",
    "country": "United States",
    "region": "North America",
    "address": "2001 Sixth Avenue, Seattle, WA 98121",
    "latitude": 47.6062,
    "longitude": -122.3321,
    "features": ["Software Defined Network", "Cloud Connectivity", "Global Reach", "On-Demand Provisioning"],
    "connectivity": "Direct cloud connections to AWS, Azure, Google Cloud"
  },
  {
    "id": "megaport-sjc1",
    "provider": "Megaport",
    "name": "San Jose",
    "city": "San Jose",
    "country": "United States",
    "region": "North America",
    "address": "11 Great Oaks Boulevard, San Jose, CA 95119",
    "latitude": 37.3382,
    "longitude": -121.8863,
    "features": ["Software Defined Network", "Cloud Connectivity", "Global Reach", "On-Demand Provisioning"],
    "connectivity": "Direct cloud connections to AWS, Azure, Google Cloud"
  },
  {
    "id": "megaport-tor1",
    "provider": "Megaport",
    "name": "Toronto",
    "city": "Toronto",
    "country": "Canada",
    "region": "North America",
    "address": "151 Front St W, Toronto, ON M5J 2N1",
    "latitude": 43.6532,
    "longitude": -79.3832,
    "features": ["Software Defined Network", "Cloud Connectivity", "Global Reach", "On-Demand Provisioning"],
    "connectivity": "Direct cloud connections to AWS, Azure, Google Cloud"
  },
  {
    "id": "megaport-van1",
    "provider": "Megaport",
    "name": "Vancouver",
    "city": "Vancouver",
    "country": "Canada",
    "region": "North America",
    "address": "555 West Hastings Street, Vancouver, BC V6B 4N6",
    "latitude": 49.2827,
    "longitude": -123.1207,
    "features": ["Software Defined Network", "Cloud Connectivity", "Global Reach", "On-Demand Provisioning"],
    "connectivity": "Direct cloud connections to AWS, Azure, Google Cloud"
  },
  {
    "id": "megaport-lon1",
    "provider": "Megaport",
    "name": "London",
    "city": "London",
    "country": "United Kingdom",
    "region": "Europe",
    "address": "Telehouse North, Coriander Avenue, London E14 2AA",
    "latitude": 51.5074,
    "longitude": -0.1278,
    "features": ["Software Defined Network", "Cloud Connectivity", "Global Reach", "On-Demand Provisioning"],
    "connectivity": "Direct cloud connections to AWS, Azure, Google Cloud"
  },
  {
    "id": "megaport-fra1",
    "provider": "Megaport",
    "name": "Frankfurt",
    "city": "Frankfurt",
    "country": "Germany",
    "region": "Europe",
    "address": "Hanauer Landstraße 302, 60314 Frankfurt am Main",
    "latitude": 50.1109,
    "longitude": 8.6821,
    "features": ["Software Defined Network", "Cloud Connectivity", "Global Reach", "On-Demand Provisioning"],
    "connectivity": "Direct cloud connections to AWS, Azure, Google Cloud"
  },
  {
    "id": "megaport-ams1",
    "provider": "Megaport",
    "name": "Amsterdam",
    "city": "Amsterdam",
    "country": "Netherlands",
    "region": "Europe",
    "address": "Science Park 610, 1098 XH Amsterdam",
    "latitude": 52.3676,
    "longitude": 4.9041,
    "features": ["Software Defined Network", "Cloud Connectivity", "Global Reach", "On-Demand Provisioning"],
    "connectivity": "Direct cloud connections to AWS, Azure, Google Cloud"
  },
  {
    "id": "megaport-par1",
    "provider": "Megaport",
    "name": "Paris",
    "city": "Paris",
    "country": "France",
    "region": "Europe",
    "address": "114 Rue Ambroise Croizat, 93200 Saint-Denis",
    "latitude": 48.8566,
    "longitude": 2.3522,
    "features": ["Software Defined Network", "Cloud Connectivity", "Global Reach", "On-Demand Provisioning"],
    "connectivity": "Direct cloud connections to AWS, Azure, Google Cloud"
  },
  {
    "id": "megaport-mad1",
    "provider": "Megaport",
    "name": "Madrid",
    "city": "Madrid",
    "country": "Spain",
    "region": "Europe",
    "address": "Calle de Alcalá, 61, 28014 Madrid",
    "latitude": 40.4168,
    "longitude": -3.7038,
    "features": ["Software Defined Network", "Cloud Connectivity", "Global Reach", "On-Demand Provisioning"],
    "connectivity": "Direct cloud connections to AWS, Azure, Google Cloud"
  },
  {
    "id": "megaport-mil1",
    "provider": "Megaport",
    "name": "Milan",
    "city": "Milan",
    "country": "Italy",
    "region": "Europe",
    "address": "Via Caldera, 21, 20153 Milano MI",
    "latitude": 45.4642,
    "longitude": 9.1900,
    "features": ["Software Defined Network", "Cloud Connectivity", "Global Reach", "On-Demand Provisioning"],
    "connectivity": "Direct cloud connections to AWS, Azure, Google Cloud"
  },
  {
    "id": "megaport-sto1",
    "provider": "Megaport",
    "name": "Stockholm",
    "city": "Stockholm",
    "country": "Sweden",
    "region": "Europe",
    "address": "Isafjordsgatan 32C, 164 40 Kista",
    "latitude": 59.3293,
    "longitude": 18.0686,
    "features": ["Software Defined Network", "Cloud Connectivity", "Global Reach", "On-Demand Provisioning"],
    "connectivity": "Direct cloud connections to AWS, Azure, Google Cloud"
  },
  {
    "id": "megaport-zur1",
    "provider": "Megaport",
    "name": "Zurich",
    "city": "Zurich",
    "country": "Switzerland",
    "region": "Europe",
    "address": "Hertistrasse 25, 8304 Wallisellen",
    "latitude": 47.3769,
    "longitude": 8.5417,
    "features": ["Software Defined Network", "Cloud Connectivity", "Global Reach", "On-Demand Provisioning"],
    "connectivity": "Direct cloud connections to AWS, Azure, Google Cloud"
  },
  {
    "id": "megaport-sin1",
    "provider": "Megaport",
    "name": "Singapore",
    "city": "Singapore",
    "country": "Singapore",
    "region": "Asia Pacific",
    "address": "20 Ayer Rajah Crescent, Singapore 139964",
    "latitude": 1.3521,
    "longitude": 103.8198,
    "features": ["Software Defined Network", "Cloud Connectivity", "Global Reach", "On-Demand Provisioning"],
    "connectivity": "Direct cloud connections to AWS, Azure, Google Cloud"
  },
  {
    "id": "megaport-syd1",
    "provider": "Megaport",
    "name": "Sydney",
    "city": "Sydney",
    "country": "Australia",
    "region": "Asia Pacific",
    "address": "4 Eden Park Dr, Macquarie Park NSW 2113",
    "latitude": -33.8688,
    "longitude": 151.2093,
    "features": ["Software Defined Network", "Cloud Connectivity", "Global Reach", "On-Demand Provisioning"],
    "connectivity": "Direct cloud connections to AWS, Azure, Google Cloud"
  },
  {
    "id": "megaport-mel1",
    "provider": "Megaport",
    "name": "Melbourne",
    "city": "Melbourne",
    "country": "Australia",
    "region": "Asia Pacific",
    "address": "820 Lorimer Street, Port Melbourne VIC 3207",
    "latitude": -37.8136,
    "longitude": 144.9631,
    "features": ["Software Defined Network", "Cloud Connectivity", "Global Reach", "On-Demand Provisioning"],
    "connectivity": "Direct cloud connections to AWS, Azure, Google Cloud"
  },
  {
    "id": "megaport-per1",
    "provider": "Megaport",
    "name": "Perth",
    "city": "Perth",
    "country": "Australia",
    "region": "Asia Pacific",
    "address": "239 Adelaide Terrace, Perth WA 6000",
    "latitude": -31.9505,
    "longitude": 115.8605,
    "features": ["Software Defined Network", "Cloud Connectivity", "Global Reach", "On-Demand Provisioning"],
    "connectivity": "Direct cloud connections to AWS, Azure, Google Cloud"
  },
  {
    "id": "megaport-tok1",
    "provider": "Megaport",
    "name": "Tokyo",
    "city": "Tokyo",
    "country": "Japan",
    "region": "Asia Pacific",
    "address": "Otemachi Financial City Grand Cube, Tokyo 100-0004",
    "latitude": 35.6762,
    "longitude": 139.6503,
    "features": ["Software Defined Network", "Cloud Connectivity", "Global Reach", "On-Demand Provisioning"],
    "connectivity": "Direct cloud connections to AWS, Azure, Google Cloud"
  },
  {
    "id": "megaport-osa1",
    "provider": "Megaport",
    "name": "Osaka",
    "city": "Osaka",
    "country": "Japan",
    "region": "Asia Pacific",
    "address": "1-8-16 Kyutaro-machi, Chuo-ku, Osaka 541-0056",
    "latitude": 34.6937,
    "longitude": 135.5023,
    "features": ["Software Defined Network", "Cloud Connectivity", "Global Reach", "On-Demand Provisioning"],
    "connectivity": "Direct cloud connections to AWS, Azure, Google Cloud"
  },
  {
    "id": "megaport-hkg1",
    "provider": "Megaport",
    "name": "Hong Kong",
    "city": "Hong Kong",
    "country": "Hong Kong",
    "region": "Asia Pacific",
    "address": "MEGA-i, 398 Kwun Tong Road, Kwun Tong, Kowloon",
    "latitude": 22.3193,
    "longitude": 114.1694,
    "features": ["Software Defined Network", "Cloud Connectivity", "Global Reach", "On-Demand Provisioning"],
    "connectivity": "Direct cloud connections to AWS, Azure, Google Cloud"
  },
  {
    "id": "megaport-seo1",
    "provider": "Megaport",
    "name": "Seoul",
    "city": "Seoul",
    "country": "South Korea",
    "region": "Asia Pacific",
    "address": "Digital Media City, 396 World Cup buk-ro, Mapo-gu",
    "latitude": 37.5665,
    "longitude": 126.9780,
    "features": ["Software Defined Network", "Cloud Connectivity", "Global Reach", "On-Demand Provisioning"],
    "connectivity": "Direct cloud connections to AWS, Azure, Google Cloud"
  },
  {
    "id": "megaport-mum1",
    "provider": "Megaport",
    "name": "Mumbai",
    "city": "Mumbai",
    "country": "India",
    "region": "Asia Pacific",
    "address": "Hiranandani Business Park, Powai, Mumbai 400076",
    "latitude": 19.0760,
    "longitude": 72.8777,
    "features": ["Software Defined Network", "Cloud Connectivity", "Global Reach", "On-Demand Provisioning"],
    "connectivity": "Direct cloud connections to AWS, Azure, Google Cloud"
  }
]