[
  {
    "id": "megaport-ash1",
    "provider": "Megaport",
    "name": "Ashburn",
    "city": "Ashburn",
    "country": "United States",
    "region": "North America",
    "address": "21715 Filigree Court, Ashburn, VA 20147",
    "latitude": 39.0458,
    "longitude": -77.4874,
    "features": ["Software Defined Network", "Cloud Connectivity", "Global Reach", "On-Demand Provisioning"],
    "connectivity": "Direct cloud connections to AWS, Azure, Google Cloud"
  },
  {
    "id": "megaport-atl1",
    "provider": "Megaport",
    "name": "Atlanta",
    "city": "Atlanta",
    "country": "United States",
    "region": "North America",
    "address": "56 Marietta Street NW, Atlanta, GA 30303",
    "latitude": 33.7490,
    "longitude": -84.3880,
    "features": ["Software Defined Network", "Cloud Connectivity", "Global Reach", "On-Demand Provisioning"],
    "connectivity": "Direct cloud connections to AWS, Azure, Google Cloud"
  },
  {
    "id": "megaport-bos1",
    "provider": "Megaport",
    "name": "Boston",
    "city": "Boston",
    "country": "United States",
    "region": "North America",
    "address": "200 Paul Avenue, Boston, MA 02128",
    "latitude": 42.3601,
    "longitude": -71.0589,
    "features": ["Software Defined Network", "Cloud Connectivity", "Global Reach", "On-Demand Provisioning"],
    "connectivity": "Direct cloud connections to AWS, Azure, Google Cloud"
  },
  {
    "id": "megaport-chi1",
    "provider": "Megaport",
    "name": "Chicago",
    "city": "Chicago",
    "country": "United States",
    "region": "North America",
    "address": "350 E Cermak Rd, Chicago, IL 60616",
    "latitude": 41.8781,
    "longitude": -87.6298,
    "features": ["Software Defined Network", "Cloud Connectivity", "Global Reach", "On-Demand Provisioning"],
    "connectivity": "Direct cloud connections to AWS, Azure, Google Cloud"
  },
  {
    "id": "megaport-dal1",
    "provider": "Megaport",
    "name": "Dallas",
    "city": "Dallas",
    "country": "United States",
    "region": "North America",
    "address": "1950 North Stemmons Freeway, Dallas, TX 75207",
    "latitude": 32.7767,
    "longitude": -96.7970,
    "features": ["Software Defined Network", "Cloud Connectivity", "Global Reach", "On-Demand Provisioning"],
    "connectivity": "Direct cloud connections to AWS, Azure, Google Cloud"
  },
  {
    "id": "megaport-den1",
    "provider": "Megaport",
    "name": "Denver",
    "city": "Denver",
    "country": "United States",
    "region": "North America",
    "address": "1275 South Colorado Boulevard, Denver, CO 80246",
    "latitude": 39.7392,
    "longitude": -104.9903,
    "features": ["Software Defined Network", "Cloud Connectivity", "Global Reach", "On-Demand Provisioning"],
    "connectivity": "Direct cloud connections to AWS, Azure, Google Cloud"
  }
]
  ,{
    "id": "megaport-lax1",
    "provider": "Megaport",
    "name": "Los Angeles",
    "city": "Los Angeles",
    "country": "United States",
    "region": "North America",
    "address": "One Wilshire, 624 S Grand Ave, Los Angeles, CA 90017",
    "latitude": 34.0522,
    "longitude": -118.2437,
    "features": ["Software Defined Network", "Cloud Connectivity", "Global Reach", "On-Demand Provisioning"],
    "connectivity": "Direct cloud connections to AWS, Azure, Google Cloud"
  },
  {
    "id": "megaport-mia1",
    "provider": "Megaport",
    "name": "Miami",
    "city": "Miami",
    "country": "United States",
    "region": "North America",
    "address": "50 Northeast 9th Street, Miami, FL 33132",
    "latitude": 25.7617,
    "longitude": -80.1918,
    "features": ["Software Defined Network", "Cloud Connectivity", "Global Reach", "On-Demand Provisioning"],
    "connectivity": "Direct cloud connections to AWS, Azure, Google Cloud"
  },
  {
    "id": "megaport-ny1",
    "provider": "Megaport",
    "name": "New York",
    "city": "New York",
    "country": "United States",
    "region": "North America",
    "address": "32 Avenue of the Americas, New York, NY 10013",
    "latitude": 40.7128,
    "longitude": -74.0060,
    "features": ["Software Defined Network", "Cloud Connectivity", "Global Reach", "On-Demand Provisioning"],
    "connectivity": "Direct cloud connections to AWS, Azure, Google Cloud"
  },
  {
    "id": "megaport-phx1",
    "provider": "Megaport",
    "name": "Phoenix",
    "city": "Phoenix",
    "country": "United States",
    "region": "North America",
    "address": "2323 W Dunlap Ave, Phoenix, AZ 85021",
    "latitude": 33.4484,
    "longitude": -112.0740,
    "features": ["Software Defined Network", "Cloud Connectivity", "Global Reach", "On-Demand Provisioning"],
    "connectivity": "Direct cloud connections to AWS, Azure, Google Cloud"
  },
  {
    "id": "megaport-sea1",
    "provider": "Megaport",
    "name": "Seattle",
    "city": "Seattle",
    "country": "United States",
    "region": "North America",
    "address": "2001 Sixth Avenue, Seattle, WA 98121",
    "latitude": 47.6062,
    "longitude": -122.3321,
    "features": ["Software Defined Network", "Cloud Connectivity", "Global Reach", "On-Demand Provisioning"],
    "connectivity": "Direct cloud connections to AWS, Azure, Google Cloud"
  },
  {
    "id": "megaport-sjc1",
    "provider": "Megaport",
    "name": "San Jose",
    "city": "San Jose",
    "country": "United States",
    "region": "North America",
    "address": "11 Great Oaks Boulevard, San Jose, CA 95119",
    "latitude": 37.3382,
    "longitude": -121.8863,
    "features": ["Software Defined Network", "Cloud Connectivity", "Global Reach", "On-Demand Provisioning"],
    "connectivity": "Direct cloud connections to AWS, Azure, Google Cloud"
  },
  {
    "id": "megaport-las1",
    "provider": "Megaport",
    "name": "Las Vegas",
    "city": "Las Vegas",
    "country": "United States",
    "region": "North America",
    "address": "7135 Gilespie Street, Las Vegas, NV 89119",
    "latitude": 36.1699,
    "longitude": -115.1398,
    "features": ["Software Defined Network", "Cloud Connectivity", "Global Reach", "On-Demand Provisioning"],
    "connectivity": "Direct cloud connections to AWS, Azure, Google Cloud"
  },
  {
    "id": "megaport-por1",
    "provider": "Megaport",
    "name": "Portland",
    "city": "Portland",
    "country": "United States",
    "region": "North America",
    "address": "23245 Northwest Evergreen Parkway, Hillsboro, OR 97124",
    "latitude": 45.5152,
    "longitude": -122.6784,
    "features": ["Software Defined Network", "Cloud Connectivity", "Global Reach", "On-Demand Provisioning"],
    "connectivity": "Direct cloud connections to AWS, Azure, Google Cloud"
  },
  {
    "id": "megaport-hou1",
    "provider": "Megaport",
    "name": "Houston",
    "city": "Houston",
    "country": "United States",
    "region": "North America",
    "address": "1301 Fannin Street, Houston, TX 77002",
    "latitude": 29.7604,
    "longitude": -95.3698,
    "features": ["Software Defined Network", "Cloud Connectivity", "Global Reach", "On-Demand Provisioning"],
    "connectivity": "Direct cloud connections to AWS, Azure, Google Cloud"
  },
  {
    "id": "megaport-min1",
    "provider": "Megaport",
    "name": "Minneapolis",
    "city": "Minneapolis",
    "country": "United States",
    "region": "North America",
    "address": "5480 Nathan Lane North, Plymouth, MN 55442",
    "latitude": 44.9778,
    "longitude": -93.2650,
    "features": ["Software Defined Network", "Cloud Connectivity", "Global Reach", "On-Demand Provisioning"],
    "connectivity": "Direct cloud connections to AWS, Azure, Google Cloud"
  },
  {
    "id": "megaport-kc1",
    "provider": "Megaport",
    "name": "Kansas City",
    "city": "Kansas City",
    "country": "United States",
    "region": "North America",
    "address": "1212 East 18th Street, Kansas City, MO 64108",
    "latitude": 39.0997,
    "longitude": -94.5786,
    "features": ["Software Defined Network", "Cloud Connectivity", "Global Reach", "On-Demand Provisioning"],
    "connectivity": "Direct cloud connections to AWS, Azure, Google Cloud"
  },
  {
    "id": "megaport-nash1",
    "provider": "Megaport",
    "name": "Nashville",
    "city": "Nashville",
    "country": "United States",
    "region": "North America",
    "address": "1 Century Place, Nashville, TN 37214",
    "latitude": 36.1627,
    "longitude": -86.7816,
    "features": ["Software Defined Network", "Cloud Connectivity", "Global Reach", "On-Demand Provisioning"],
    "connectivity": "Direct cloud connections to AWS, Azure, Google Cloud"
  },
  {
    "id": "megaport-tor1",
    "provider": "Megaport",
    "name": "Toronto",
    "city": "Toronto",
    "country": "Canada",
    "region": "North America",
    "address": "151 Front St W, Toronto, ON M5J 2N1",
    "latitude": 43.6532,
    "longitude": -79.3832,
    "features": ["Software Defined Network", "Cloud Connectivity", "Global Reach", "On-Demand Provisioning"],
    "connectivity": "Direct cloud connections to AWS, Azure, Google Cloud"
  },
  {
    "id": "megaport-van1",
    "provider": "Megaport",
    "name": "Vancouver",
    "city": "Vancouver",
    "country": "Canada",
    "region": "North America",
    "address": "555 West Hastings Street, Vancouver, BC V6B 4N6",
    "latitude": 49.2827,
    "longitude": -123.1207,
    "features": ["Software Defined Network", "Cloud Connectivity", "Global Reach", "On-Demand Provisioning"],
    "connectivity": "Direct cloud connections to AWS, Azure, Google Cloud"
  },
  {
    "id": "megaport-cal1",
    "provider": "Megaport",
    "name": "Calgary",
    "city": "Calgary",
    "country": "Canada",
    "region": "North America",
    "address": "1400 28 Street NE, Calgary, AB T2A 7W7",
    "latitude": 51.0447,
    "longitude": -114.0719,
    "features": ["Software Defined Network", "Cloud Connectivity", "Global Reach", "On-Demand Provisioning"],
    "connectivity": "Direct cloud connections to AWS, Azure, Google Cloud"
  },
  {
    "id": "megaport-mon1",
    "provider": "Megaport",
    "name": "Montreal",
    "city": "Montreal",
    "country": "Canada",
    "region": "North America",
    "address": "800 René-Lévesque Blvd West, Montreal, QC H3B 1X9",
    "latitude": 45.5017,
    "longitude": -73.5673,
    "features": ["Software Defined Network", "Cloud Connectivity", "Global Reach", "On-Demand Provisioning"],
    "connectivity": "Direct cloud connections to AWS, Azure, Google Cloud"
  }
]
  ,{
    "id": "megaport-lon1",
    "provider": "Megaport",
    "name": "London",
    "city": "London",
    "country": "United Kingdom",
    "region": "Europe",
    "address": "Telehouse North, Coriander Avenue, London E14 2AA",
    "latitude": 51.5074,
    "longitude": -0.1278,
    "features": ["Software Defined Network", "Cloud Connectivity", "Global Reach", "On-Demand Provisioning"],
    "connectivity": "Direct cloud connections to AWS, Azure, Google Cloud"
  },
  {
    "id": "megaport-man1",
    "provider": "Megaport",
    "name": "Manchester",
    "city": "Manchester",
    "country": "United Kingdom",
    "region": "Europe",
    "address": "Williams House, Manchester Science Park, Manchester M15 6SE",
    "latitude": 53.4808,
    "longitude": -2.2426,
    "features": ["Software Defined Network", "Cloud Connectivity", "Global Reach", "On-Demand Provisioning"],
    "connectivity": "Direct cloud connections to AWS, Azure, Google Cloud"
  },
  {
    "id": "megaport-fra1",
    "provider": "Megaport",
    "name": "Frankfurt",
    "city": "Frankfurt",
    "country": "Germany",
    "region": "Europe",
    "address": "Hanauer Landstraße 302, 60314 Frankfurt am Main",
    "latitude": 50.1109,
    "longitude": 8.6821,
    "features": ["Software Defined Network", "Cloud Connectivity", "Global Reach", "On-Demand Provisioning"],
    "connectivity": "Direct cloud connections to AWS, Azure, Google Cloud"
  },
  {
    "id": "megaport-ber1",
    "provider": "Megaport",
    "name": "Berlin",
    "city": "Berlin",
    "country": "Germany",
    "region": "Europe",
    "address": "Gradestraße 60, 12347 Berlin",
    "latitude": 52.5200,
    "longitude": 13.4050,
    "features": ["Software Defined Network", "Cloud Connectivity", "Global Reach", "On-Demand Provisioning"],
    "connectivity": "Direct cloud connections to AWS, Azure, Google Cloud"
  },
  {
    "id": "megaport-mun1",
    "provider": "Megaport",
    "name": "Munich",
    "city": "Munich",
    "country": "Germany",
    "region": "Europe",
    "address": "Lichtenbergstraße 8, 85748 Garching",
    "latitude": 48.1351,
    "longitude": 11.5820,
    "features": ["Software Defined Network", "Cloud Connectivity", "Global Reach", "On-Demand Provisioning"],
    "connectivity": "Direct cloud connections to AWS, Azure, Google Cloud"
  },
  {
    "id": "megaport-ams1",
    "provider": "Megaport",
    "name": "Amsterdam",
    "city": "Amsterdam",
    "country": "Netherlands",
    "region": "Europe",
    "address": "Science Park 610, 1098 XH Amsterdam",
    "latitude": 52.3676,
    "longitude": 4.9041,
    "features": ["Software Defined Network", "Cloud Connectivity", "Global Reach", "On-Demand Provisioning"],
    "connectivity": "Direct cloud connections to AWS, Azure, Google Cloud"
  },
  {
    "id": "megaport-par1",
    "provider": "Megaport",
    "name": "Paris",
    "city": "Paris",
    "country": "France",
    "region": "Europe",
    "address": "114 Rue Ambroise Croizat, 93200 Saint-Denis",
    "latitude": 48.8566,
    "longitude": 2.3522,
    "features": ["Software Defined Network", "Cloud Connectivity", "Global Reach", "On-Demand Provisioning"],
    "connectivity": "Direct cloud connections to AWS, Azure, Google Cloud"
  },
  {
    "id": "megaport-mar1",
    "provider": "Megaport",
    "name": "Marseille",
    "city": "Marseille",
    "country": "France",
    "region": "Europe",
    "address": "Technopôle de Château-Gombert, Marseille 13013",
    "latitude": 43.2965,
    "longitude": 5.3698,
    "features": ["Software Defined Network", "Cloud Connectivity", "Global Reach", "On-Demand Provisioning"],
    "connectivity": "Direct cloud connections to AWS, Azure, Google Cloud"
  },
  {
    "id": "megaport-mad1",
    "provider": "Megaport",
    "name": "Madrid",
    "city": "Madrid",
    "country": "Spain",
    "region": "Europe",
    "address": "Calle de Alcalá, 61, 28014 Madrid",
    "latitude": 40.4168,
    "longitude": -3.7038,
    "features": ["Software Defined Network", "Cloud Connectivity", "Global Reach", "On-Demand Provisioning"],
    "connectivity": "Direct cloud connections to AWS, Azure, Google Cloud"
  },
  {
    "id": "megaport-mil1",
    "provider": "Megaport",
    "name": "Milan",
    "city": "Milan",
    "country": "Italy",
    "region": "Europe",
    "address": "Via Caldera, 21, 20153 Milano MI",
    "latitude": 45.4642,
    "longitude": 9.1900,
    "features": ["Software Defined Network", "Cloud Connectivity", "Global Reach", "On-Demand Provisioning"],
    "connectivity": "Direct cloud connections to AWS, Azure, Google Cloud"
  },
  {
    "id": "megaport-sto1",
    "provider": "Megaport",
    "name": "Stockholm",
    "city": "Stockholm",
    "country": "Sweden",
    "region": "Europe",
    "address": "Isafjordsgatan 32C, 164 40 Kista",
    "latitude": 59.3293,
    "longitude": 18.0686,
    "features": ["Software Defined Network", "Cloud Connectivity", "Global Reach", "On-Demand Provisioning"],
    "connectivity": "Direct cloud connections to AWS, Azure, Google Cloud"
  },
  {
    "id": "megaport-hel1",
    "provider": "Megaport",
    "name": "Helsinki",
    "city": "Helsinki",
    "country": "Finland",
    "region": "Europe",
    "address": "Hiomo, Lintulahti 2, 02600 Espoo",
    "latitude": 60.1699,
    "longitude": 24.9384,
    "features": ["Software Defined Network", "Cloud Connectivity", "Global Reach", "On-Demand Provisioning"],
    "connectivity": "Direct cloud connections to AWS, Azure, Google Cloud"
  },
  {
    "id": "megaport-cop1",
    "provider": "Megaport",
    "name": "Copenhagen",
    "city": "Copenhagen",
    "country": "Denmark",
    "region": "Europe",
    "address": "Ballerup Super Arena, Ballerup 2750",
    "latitude": 55.6761,
    "longitude": 12.5683,
    "features": ["Software Defined Network", "Cloud Connectivity", "Global Reach", "On-Demand Provisioning"],
    "connectivity": "Direct cloud connections to AWS, Azure, Google Cloud"
  },
  {
    "id": "megaport-osl1",
    "provider": "Megaport",
    "name": "Oslo",
    "city": "Oslo",
    "country": "Norway",
    "region": "Europe",
    "address": "Brynsveien 12, 0667 Oslo",
    "latitude": 59.9139,
    "longitude": 10.7522,
    "features": ["Software Defined Network", "Cloud Connectivity", "Global Reach", "On-Demand Provisioning"],
    "connectivity": "Direct cloud connections to AWS, Azure, Google Cloud"
  },
  {
    "id": "megaport-zur1",
    "provider": "Megaport",
    "name": "Zurich",
    "city": "Zurich",
    "country": "Switzerland",
    "region": "Europe",
    "address": "Hertistrasse 25, 8304 Wallisellen",
    "latitude": 47.3769,
    "longitude": 8.5417,
    "features": ["Software Defined Network", "Cloud Connectivity", "Global Reach", "On-Demand Provisioning"],
    "connectivity": "Direct cloud connections to AWS, Azure, Google Cloud"
  },
  {
    "id": "megaport-vie1",
    "provider": "Megaport",
    "name": "Vienna",
    "city": "Vienna",
    "country": "Austria",
    "region": "Europe",
    "address": "Lassallestraße 9a, 1020 Wien",
    "latitude": 48.2082,
    "longitude": 16.3738,
    "features": ["Software Defined Network", "Cloud Connectivity", "Global Reach", "On-Demand Provisioning"],
    "connectivity": "Direct cloud connections to AWS, Azure, Google Cloud"
  },
  {
    "id": "megaport-war1",
    "provider": "Megaport",
    "name": "Warsaw",
    "city": "Warsaw",
    "country": "Poland",
    "region": "Europe",
    "address": "Żwirki i Wigury 18, 02-092 Warszawa",
    "latitude": 52.2297,
    "longitude": 21.0122,
    "features": ["Software Defined Network", "Cloud Connectivity", "Global Reach", "On-Demand Provisioning"],
    "connectivity": "Direct cloud connections to AWS, Azure, Google Cloud"
  },
  {
    "id": "megaport-bri1",
    "provider": "Megaport",
    "name": "Brisbane",
    "city": "Brisbane",
    "country": "Australia",
    "region": "Asia Pacific",
    "address": "Level 3, 127 Creek Street, Brisbane QLD 4000",
    "latitude": -27.4698,
    "longitude": 153.0251,
    "features": ["Software Defined Network", "Cloud Connectivity", "Global Reach", "On-Demand Provisioning"],
    "connectivity": "Direct cloud connections to AWS, Azure, Google Cloud"
  },
  {
    "id": "megaport-ade1",
    "provider": "Megaport",
    "name": "Adelaide",
    "city": "Adelaide",
    "country": "Australia",
    "region": "Asia Pacific",
    "address": "Level 1, 147 Pirie Street, Adelaide SA 5000",
    "latitude": -34.9285,
    "longitude": 138.6007,
    "features": ["Software Defined Network", "Cloud Connectivity", "Global Reach", "On-Demand Provisioning"],
    "connectivity": "Direct cloud connections to AWS, Azure, Google Cloud"
  },
  {
    "id": "megaport-akl1",
    "provider": "Megaport",
    "name": "Auckland",
    "city": "Auckland",
    "country": "New Zealand",
    "region": "Asia Pacific",
    "address": "Level 1, 48 Emily Place, Auckland 1010",
    "latitude": -36.8485,
    "longitude": 174.7633,
    "features": ["Software Defined Network", "Cloud Connectivity", "Global Reach", "On-Demand Provisioning"],
    "connectivity": "Direct cloud connections to AWS, Azure, Google Cloud"
  },
  {
    "id": "megaport-kul1",
    "provider": "Megaport",
    "name": "Kuala Lumpur",
    "city": "Kuala Lumpur",
    "country": "Malaysia",
    "region": "Asia Pacific",
    "address": "Level 3A, AIMS Datacenter, Cyberjaya",
    "latitude": 3.1390,
    "longitude": 101.6869,
    "features": ["Software Defined Network", "Cloud Connectivity", "Global Reach", "On-Demand Provisioning"],
    "connectivity": "Direct cloud connections to AWS, Azure, Google Cloud"
  },
  {
    "id": "megaport-bkk1",
    "provider": "Megaport",
    "name": "Bangkok",
    "city": "Bangkok",
    "country": "Thailand",
    "region": "Asia Pacific",
    "address": "CAT Telecom Tower, 1761 New Phetchaburi Road",
    "latitude": 13.7563,
    "longitude": 100.5018,
    "features": ["Software Defined Network", "Cloud Connectivity", "Global Reach", "On-Demand Provisioning"],
    "connectivity": "Direct cloud connections to AWS, Azure, Google Cloud"
  },
  {
    "id": "megaport-jkt1",
    "provider": "Megaport",
    "name": "Jakarta",
    "city": "Jakarta",
    "country": "Indonesia",
    "region": "Asia Pacific",
    "address": "Cyber Building, Jl. Kuningan Barat No.8",
    "latitude": -6.2088,
    "longitude": 106.8456,
    "features": ["Software Defined Network", "Cloud Connectivity", "Global Reach", "On-Demand Provisioning"],
    "connectivity": "Direct cloud connections to AWS, Azure, Google Cloud"
  },
  {
    "id": "megaport-mnl1",
    "provider": "Megaport",
    "name": "Manila",
    "city": "Manila",
    "country": "Philippines",
    "region": "Asia Pacific",
    "address": "VITRO Data Center, Filinvest Corporate City",
    "latitude": 14.5995,
    "longitude": 120.9842,
    "features": ["Software Defined Network", "Cloud Connectivity", "Global Reach", "On-Demand Provisioning"],
    "connectivity": "Direct cloud connections to AWS, Azure, Google Cloud"
  },
  {
    "id": "megaport-mum1",
    "provider": "Megaport",
    "name": "Mumbai",
    "city": "Mumbai",
    "country": "India",
    "region": "Asia Pacific",
    "address": "Nesco IT Park, Western Express Highway",
    "latitude": 19.0760,
    "longitude": 72.8777,
    "features": ["Software Defined Network", "Cloud Connectivity", "Global Reach", "On-Demand Provisioning"],
    "connectivity": "Direct cloud connections to AWS, Azure, Google Cloud"
  },
  {
    "id": "megaport-del1",
    "provider": "Megaport",
    "name": "Delhi",
    "city": "Delhi",
    "country": "India",
    "region": "Asia Pacific",
    "address": "Netmagic Data Center, Sector 18, Gurugram",
    "latitude": 28.7041,
    "longitude": 77.1025,
    "features": ["Software Defined Network", "Cloud Connectivity", "Global Reach", "On-Demand Provisioning"],
    "connectivity": "Direct cloud connections to AWS, Azure, Google Cloud"
  }
]